[
  {
    "name": "Barfield Murphy Shank & Smith LLC",
    "category": "Accountant",
    "address": "",
    "house_number": "",
    "city": "Auburn",
    "state": "AL",
    "zip": "",
    "phone": "",
    "website": "",
    "cuisine": "",
    "hours": "",
    "lat": 32.6067003,
    "lon": -85.4802438,
    "full_address": ""
  },
  {
    "name": "Eden Scott & Associates, P.C.",
    "category": "Accountant",
    "address": "North Dean Road",
    "house_number": "201",
    "city": "Auburn",
    "state": "AL",
    "zip": "",
    "phone": "",
    "website": "",
    "cuisine": "",
    "hours": "",
    "lat": 32.6155666,
    "lon": -85.4639793,
    "full_address": "201 North Dean Road"
  },
  {
    "name": "Ellis Harper Advertising",
    "category": "Advertising Agency",
    "address": "",
    "house_number": "",
    "city": "Auburn",
    "state": "AL",
    "zip": "",
    "phone": "",
    "website": "",
    "cuisine": "",
    "hours": "",
    "lat": 32.6145144,
    "lon": -85.4701483,
    "full_address": ""
  },
  {
    "name": "Lee County Humane Society",
    "category": "Animal Shelter",
    "address": "Ware Drive",
    "house_number": "1140",
    "city": "Auburn",
    "state": "AL",
    "zip": "36832",
    "phone": "",
    "website": "",
    "cuisine": "",
    "hours": "",
    "lat": 32.6195339,
    "lon": -85.5053687,
    "full_address": "1140 Ware Drive"
  },
  {
    "name": "Downtowner Apartments",
    "category": "Apartment",
    "address": "East Magnolia Avenue",
    "house_number": "156",
    "city": "Auburn",
    "state": "AL",
    "zip": "36830",
    "phone": "+1-334-329-0708",
    "website": "",
    "cuisine": "",
    "hours": "",
    "lat": 32.6064021,
    "lon": -85.4803691,
    "full_address": "156 East Magnolia Avenue"
  },
  {
    "name": "Moores Mill Place",
    "category": "Apartment",
    "address": "Moores Mill Road",
    "house_number": "429",
    "city": "Auburn",
    "state": "AL",
    "zip": "36830",
    "phone": "",
    "website": "",
    "cuisine": "",
    "hours": "",
    "lat": 32.5974837,
    "lon": -85.4735019,
    "full_address": "429 Moores Mill Road"
  },
  {
    "name": "Auburn Art",
    "category": "Art",
    "address": "North College Street",
    "house_number": "102",
    "city": "Auburn",
    "state": "AL",
    "zip": "",
    "phone": "+1-334-887-7788",
    "website": "https://auburnart.com/",
    "cuisine": "",
    "hours": "Mo-Sa 10:00-19:00; Su 12:00-17:00",
    "lat": 32.6067751,
    "lon": -85.4815397,
    "full_address": "102 North College Street"
  },
  {
    "name": "The Gallery at Vignettes",
    "category": "Art",
    "address": "",
    "house_number": "",
    "city": "Auburn",
    "state": "AL",
    "zip": "",
    "phone": "",
    "website": "",
    "cuisine": "",
    "hours": "",
    "lat": 32.6067936,
    "lon": -85.4745206,
    "full_address": ""
  },
  {
    "name": "Bent",
    "category": "Artwork",
    "address": "",
    "house_number": "",
    "city": "Auburn",
    "state": "AL",
    "zip": "",
    "phone": "",
    "website": "",
    "cuisine": "",
    "hours": "",
    "lat": 32.6054164,
    "lon": -85.4874807,
    "full_address": ""
  },
  {
    "name": "Bo Jackson",
    "category": "Artwork",
    "address": "",
    "house_number": "",
    "city": "Auburn",
    "state": "AL",
    "zip": "",
    "phone": "",
    "website": "",
    "cuisine": "",
    "hours": "",
    "lat": 32.6015277,
    "lon": -85.4881099,
    "full_address": ""
  },
  {
    "name": "Cam Newton",
    "category": "Artwork",
    "address": "",
    "house_number": "",
    "city": "Auburn",
    "state": "AL",
    "zip": "",
    "phone": "",
    "website": "",
    "cuisine": "",
    "hours": "",
    "lat": 32.6012999,
    "lon": -85.4883599,
    "full_address": ""
  },
  {
    "name": "Charles Barkley",
    "category": "Artwork",
    "address": "",
    "house_number": "",
    "city": "Auburn",
    "state": "AL",
    "zip": "",
    "phone": "",
    "website": "",
    "cuisine": "",
    "hours": "",
    "lat": 32.602131,
    "lon": -85.4923738,
    "full_address": ""
  },
  {
    "name": "Eta Kappa Nu",
    "category": "Artwork",
    "address": "",
    "house_number": "",
    "city": "Auburn",
    "state": "AL",
    "zip": "",
    "phone": "",
    "website": "",
    "cuisine": "",
    "hours": "",
    "lat": 32.6063949,
    "lon": -85.4844618,
    "full_address": ""
  },
  {
    "name": "John Heisman",
    "category": "Artwork",
    "address": "",
    "house_number": "",
    "city": "Auburn",
    "state": "AL",
    "zip": "",
    "phone": "",
    "website": "",
    "cuisine": "",
    "hours": "",
    "lat": 32.6016188,
    "lon": -85.4879864,
    "full_address": ""
  },
  {
    "name": "Monody",
    "category": "Artwork",
    "address": "",
    "house_number": "",
    "city": "Auburn",
    "state": "AL",
    "zip": "",
    "phone": "",
    "website": "",
    "cuisine": "",
    "hours": "",
    "lat": 32.5982108,
    "lon": -85.4861187,
    "full_address": ""
  },
  {
    "name": "Pat Sullivan",
    "category": "Artwork",
    "address": "",
    "house_number": "",
    "city": "Auburn",
    "state": "AL",
    "zip": "",
    "phone": "",
    "website": "",
    "cuisine": "",
    "hours": "",
    "lat": 32.6017546,
    "lon": -85.4879442,
    "full_address": ""
  },
  {
    "name": "Civil War Cannon Lathe",
    "category": "Attraction",
    "address": "",
    "house_number": "",
    "city": "Auburn",
    "state": "AL",
    "zip": "",
    "phone": "",
    "website": "",
    "cuisine": "",
    "hours": "",
    "lat": 32.6050083,
    "lon": -85.4826767,
    "full_address": ""
  },
  {
    "name": "Founders' Oak",
    "category": "Attraction",
    "address": "",
    "house_number": "",
    "city": "Auburn",
    "state": "AL",
    "zip": "",
    "phone": "",
    "website": "",
    "cuisine": "",
    "hours": "",
    "lat": 32.5961541,
    "lon": -85.4833883,
    "full_address": ""
  },
  {
    "name": "University Seal",
    "category": "Attraction",
    "address": "",
    "house_number": "",
    "city": "Auburn",
    "state": "AL",
    "zip": "",
    "phone": "",
    "website": "",
    "cuisine": "",
    "hours": "",
    "lat": 32.6053803,
    "lon": -85.482551,
    "full_address": ""
  },
  {
    "name": "Mavis Tires & Brakes",
    "category": "Auto Repair",
    "address": "South College Street",
    "house_number": "1646",
    "city": "Auburn",
    "state": "AL",
    "zip": "36832",
    "phone": "",
    "website": "",
    "cuisine": "",
    "hours": "",
    "lat": 32.5759362,
    "lon": -85.4990301,
    "full_address": "1646 South College Street"
  },
  {
    "name": "Pep Boys",
    "category": "Auto Repair",
    "address": "",
    "house_number": "",
    "city": "Auburn",
    "state": "AL",
    "zip": "",
    "phone": "",
    "website": "",
    "cuisine": "",
    "hours": "",
    "lat": 32.5810333,
    "lon": -85.4942255,
    "full_address": ""
  },
  {
    "name": "Whitt's Auto Service Center",
    "category": "Auto Repair",
    "address": "Opelika Road",
    "house_number": "461",
    "city": "Auburn",
    "state": "AL",
    "zip": "36830",
    "phone": "",
    "website": "",
    "cuisine": "",
    "hours": "",
    "lat": 32.6138207,
    "lon": -85.4726945,
    "full_address": "461 Opelika Road"
  },
  {
    "name": "Auburn Bank",
    "category": "Bank",
    "address": "",
    "house_number": "",
    "city": "Auburn",
    "state": "AL",
    "zip": "",
    "phone": "",
    "website": "",
    "cuisine": "",
    "hours": "",
    "lat": 32.6095697,
    "lon": -85.4637867,
    "full_address": ""
  },
  {
    "name": "Auburn University Federal Credit Union",
    "category": "Bank",
    "address": "",
    "house_number": "",
    "city": "Auburn",
    "state": "AL",
    "zip": "",
    "phone": "",
    "website": "",
    "cuisine": "",
    "hours": "",
    "lat": 32.580521,
    "lon": -85.4888491,
    "full_address": ""
  },
  {
    "name": "Cadence Bank",
    "category": "Bank",
    "address": "East Glenn Avenue",
    "house_number": "807",
    "city": "Auburn",
    "state": "AL",
    "zip": "36830",
    "phone": "+1 334-821-2220",
    "website": "https://cadencebank.com/",
    "cuisine": "",
    "hours": "Mo-Th 0830-1600, Fr 0830-1700",
    "lat": 32.6094395,
    "lon": -85.4646175,
    "full_address": "807 East Glenn Avenue"
  },
  {
    "name": "Max Credit Union",
    "category": "Bank",
    "address": "North Gay Street",
    "house_number": "336",
    "city": "Auburn",
    "state": "AL",
    "zip": "36830",
    "phone": "",
    "website": "",
    "cuisine": "",
    "hours": "Mo-Th 9:00-16:00; Fr 9:00-17:00",
    "lat": 32.6113184,
    "lon": -85.4796046,
    "full_address": "336 North Gay Street"
  },
  {
    "name": "MidSouth Bank",
    "category": "Bank",
    "address": "East Glenn Avenue",
    "house_number": "519",
    "city": "Auburn",
    "state": "AL",
    "zip": "36830",
    "phone": "+1 334-887-6440",
    "website": "https://www.bankmidsouth.com/",
    "cuisine": "",
    "hours": "Mo-Th 0900-1600, Fr 0900-1700",
    "lat": 32.6094861,
    "lon": -85.4721423,
    "full_address": "519 East Glenn Avenue"
  },
  {
    "name": "PNC Bank",
    "category": "Bank",
    "address": "South College Street",
    "house_number": "101",
    "city": "Auburn",
    "state": "AL",
    "zip": "36830",
    "phone": "",
    "website": "",
    "cuisine": "",
    "hours": "",
    "lat": 32.6063748,
    "lon": -85.4815381,
    "full_address": "101 South College Street"
  },
  {
    "name": "Regions Bank",
    "category": "Bank",
    "address": "North College Street",
    "house_number": "165",
    "city": "Auburn",
    "state": "AL",
    "zip": "",
    "phone": "+1-334-321-7140",
    "website": "https://www.regions.com/locator/al/auburn/full-service-branch-165-north-college-st",
    "cuisine": "",
    "hours": "",
    "lat": 32.6084213,
    "lon": -85.4821226,
    "full_address": "165 North College Street"
  },
  {
    "name": "River Bank & Trust",
    "category": "Bank",
    "address": "South Donahue Drive",
    "house_number": "1192",
    "city": "Auburn",
    "state": "AL",
    "zip": "36830",
    "phone": "",
    "website": "",
    "cuisine": "",
    "hours": "",
    "lat": 32.5841327,
    "lon": -85.489139,
    "full_address": "1192 South Donahue Drive"
  },
  {
    "name": "Southern States Bank",
    "category": "Bank",
    "address": "",
    "house_number": "",
    "city": "Auburn",
    "state": "AL",
    "zip": "",
    "phone": "",
    "website": "",
    "cuisine": "",
    "hours": "",
    "lat": 32.616822,
    "lon": -85.4643403,
    "full_address": ""
  },
  {
    "name": "Truist",
    "category": "Bank",
    "address": "North Gay Street",
    "house_number": "325",
    "city": "Auburn",
    "state": "AL",
    "zip": "36830",
    "phone": "",
    "website": "",
    "cuisine": "",
    "hours": "Mo-Fr 9:00-17:00",
    "lat": 32.6116477,
    "lon": -85.4803774,
    "full_address": "325 North Gay Street"
  },
  {
    "name": "Wells Fargo",
    "category": "Bank",
    "address": "North Gay Street",
    "house_number": "307",
    "city": "Auburn",
    "state": "AL",
    "zip": "36830",
    "phone": "",
    "website": "",
    "cuisine": "",
    "hours": "Mo-Fr 09:00-17:00",
    "lat": 32.6108255,
    "lon": -85.4803486,
    "full_address": "307 North Gay Street"
  },
  {
    "name": "17-16 Bar",
    "category": "Bar/Pub",
    "address": "East Magnolia Avenue",
    "house_number": "156",
    "city": "Auburn",
    "state": "AL",
    "zip": "36830",
    "phone": "",
    "website": "",
    "cuisine": "",
    "hours": "",
    "lat": 32.6063502,
    "lon": -85.480487,
    "full_address": "156 East Magnolia Avenue"
  },
  {
    "name": "Draft House",
    "category": "Bar/Pub",
    "address": "",
    "house_number": "",
    "city": "Auburn",
    "state": "AL",
    "zip": "",
    "phone": "",
    "website": "",
    "cuisine": "",
    "hours": "",
    "lat": 32.6066929,
    "lon": -85.4803422,
    "full_address": ""
  },
  {
    "name": "SkyBar",
    "category": "Bar/Pub",
    "address": "West Magnolia Avenue",
    "house_number": "136",
    "city": "Auburn",
    "state": "AL",
    "zip": "36830",
    "phone": "",
    "website": "",
    "cuisine": "",
    "hours": "",
    "lat": 32.6069635,
    "lon": -85.4827846,
    "full_address": "136 West Magnolia Avenue"
  },
  {
    "name": "Southeastern",
    "category": "Bar/Pub",
    "address": "West Magnolia Avenue",
    "house_number": "",
    "city": "Auburn",
    "state": "AL",
    "zip": "",
    "phone": "",
    "website": "",
    "cuisine": "",
    "hours": "",
    "lat": 32.6069283,
    "lon": -85.4823114,
    "full_address": "West Magnolia Avenue"
  },
  {
    "name": "City Nails & Spa",
    "category": "Beauty/Salon",
    "address": "",
    "house_number": "",
    "city": "Auburn",
    "state": "AL",
    "zip": "",
    "phone": "+1 334-826-5688",
    "website": "",
    "cuisine": "",
    "hours": "Mo-Sa 09:30-19:30",
    "lat": 32.5759463,
    "lon": -85.4968118,
    "full_address": ""
  },
  {
    "name": "Dimensions Salon",
    "category": "Beauty/Salon",
    "address": "",
    "house_number": "",
    "city": "Auburn",
    "state": "AL",
    "zip": "",
    "phone": "",
    "website": "",
    "cuisine": "",
    "hours": "",
    "lat": 32.6063874,
    "lon": -85.4802566,
    "full_address": ""
  },
  {
    "name": "Luxury Nail Spa",
    "category": "Beauty/Salon",
    "address": "",
    "house_number": "",
    "city": "Auburn",
    "state": "AL",
    "zip": "",
    "phone": "",
    "website": "",
    "cuisine": "",
    "hours": "",
    "lat": 32.6068332,
    "lon": -85.481531,
    "full_address": ""
  },
  {
    "name": "Nail Love",
    "category": "Beauty/Salon",
    "address": "North Dean Road",
    "house_number": "300",
    "city": "Auburn",
    "state": "AL",
    "zip": "",
    "phone": "+1-334-826-3511",
    "website": "",
    "cuisine": "",
    "hours": "Mo-Tu,Th-Fr 09:00-18:00; Sa 10:00-16:00",
    "lat": 32.6112381,
    "lon": -85.4634884,
    "full_address": "300 North Dean Road"
  },
  {
    "name": "Palm Beach Tan",
    "category": "Beauty/Salon",
    "address": "Annalue Drive",
    "house_number": "814-A",
    "city": "Auburn",
    "state": "AL",
    "zip": "36830",
    "phone": "",
    "website": "https://palmbeachtan.com/locations/AL/Auburn-Annalue-Drive",
    "cuisine": "",
    "hours": "Su 12:00-20:00, Mo-Th 07:00-22:00, Fr 07:00-21:00, Sa 10:00-20:00",
    "lat": 32.6118895,
    "lon": -85.4640334,
    "full_address": "814-A Annalue Drive"
  },
  {
    "name": "Pretty Please Nail Salon",
    "category": "Beauty/Salon",
    "address": "",
    "house_number": "",
    "city": "Auburn",
    "state": "AL",
    "zip": "",
    "phone": "",
    "website": "",
    "cuisine": "",
    "hours": "",
    "lat": 32.6079663,
    "lon": -85.4819043,
    "full_address": ""
  },
  {
    "name": "T - Nails",
    "category": "Beauty/Salon",
    "address": "South College Street",
    "house_number": "1409",
    "city": "Auburn",
    "state": "AL",
    "zip": "36832",
    "phone": "",
    "website": "",
    "cuisine": "",
    "hours": "",
    "lat": 32.5806031,
    "lon": -85.4946753,
    "full_address": "1409 South College Street"
  },
  {
    "name": "Auburn Furniture",
    "category": "Bed",
    "address": "Opelika Road",
    "house_number": "507",
    "city": "Auburn",
    "state": "AL",
    "zip": "36830",
    "phone": "",
    "website": "",
    "cuisine": "",
    "hours": "",
    "lat": 32.6142558,
    "lon": -85.4712785,
    "full_address": "507 Opelika Road"
  },
  {
    "name": "James Bros Bikes",
    "category": "Bicycle",
    "address": "South College Street",
    "house_number": "1100",
    "city": "Auburn",
    "state": "AL",
    "zip": "36832",
    "phone": "+1-334-821-0555",
    "website": "https://www.jamesbrosbikes.com",
    "cuisine": "",
    "hours": "Mo 10:00-15:00; Tu-Fr 10:00-18:00; Sa 10:00-15:00",
    "lat": 32.58499,
    "lon": -85.4902535,
    "full_address": "1100 South College Street"
  },
  {
    "name": "Auburn Oil Co. Booksellers",
    "category": "Bookstore",
    "address": "",
    "house_number": "",
    "city": "Auburn",
    "state": "AL",
    "zip": "",
    "phone": "+1-334-246-3003",
    "website": "",
    "cuisine": "",
    "hours": "Mo-Th 07:30-18:00; Fr,Sa 07:30-19:00; Su 09:00-18:00",
    "lat": 32.6067438,
    "lon": -85.4807809,
    "full_address": ""
  },
  {
    "name": "Auburn University Bookstore",
    "category": "Bookstore",
    "address": "Thach Concourse",
    "house_number": "351",
    "city": "Auburn",
    "state": "AL",
    "zip": "36849",
    "phone": "",
    "website": "",
    "cuisine": "",
    "hours": "",
    "lat": 32.6037004,
    "lon": -85.4863232,
    "full_address": "351 Thach Concourse"
  },
  {
    "name": "Johnston & Malone Book Store",
    "category": "Bookstore",
    "address": "South College Street",
    "house_number": "115",
    "city": "Auburn",
    "state": "AL",
    "zip": "36830",
    "phone": "+1-334-887-7007",
    "website": "https://www.jmbooks.com/",
    "cuisine": "",
    "hours": "Mo-Fr 09:00-17:00; Sa 10:00-17:00",
    "lat": 32.6060368,
    "lon": -85.4815276,
    "full_address": "115 South College Street"
  },
  {
    "name": "Behind the Glass",
    "category": "Boutique",
    "address": "",
    "house_number": "",
    "city": "Auburn",
    "state": "AL",
    "zip": "",
    "phone": "",
    "website": "",
    "cuisine": "",
    "hours": "",
    "lat": 32.606393,
    "lon": -85.4801384,
    "full_address": ""
  },
  {
    "name": "Therapy",
    "category": "Boutique",
    "address": "",
    "house_number": "",
    "city": "Auburn",
    "state": "AL",
    "zip": "",
    "phone": "",
    "website": "",
    "cuisine": "",
    "hours": "",
    "lat": 32.6063763,
    "lon": -85.4805444,
    "full_address": ""
  },
  {
    "name": "Bowlero",
    "category": "Bowling Alley",
    "address": "Opelika Road",
    "house_number": "719",
    "city": "Auburn",
    "state": "AL",
    "zip": "36830",
    "phone": "+1-334-887-6573",
    "website": "",
    "cuisine": "",
    "hours": "Tu-Th 11:00-24:00, Fr 11:00-01:00, Sa 12:00-01:00, Su 12:00-23:00",
    "lat": 32.6168101,
    "lon": -85.4654039,
    "full_address": "719 Opelika Road"
  },
  {
    "name": "Bizilia's Cafe",
    "category": "Cafe/Coffee",
    "address": "North College Street",
    "house_number": "134",
    "city": "Auburn",
    "state": "AL",
    "zip": "36830",
    "phone": "",
    "website": "",
    "cuisine": "",
    "hours": "",
    "lat": 32.6075308,
    "lon": -85.4815336,
    "full_address": "134 North College Street"
  },
  {
    "name": "Coffee Cat",
    "category": "Cafe/Coffee",
    "address": "Tichenor Avenue",
    "house_number": "124",
    "city": "Auburn",
    "state": "AL",
    "zip": "36830",
    "phone": "",
    "website": "",
    "cuisine": "coffee_shop",
    "hours": "",
    "lat": 32.6079971,
    "lon": -85.4808117,
    "full_address": "124 Tichenor Avenue"
  },
  {
    "name": "Coffee Mafia",
    "category": "Cafe/Coffee",
    "address": "",
    "house_number": "",
    "city": "Auburn",
    "state": "AL",
    "zip": "",
    "phone": "",
    "website": "",
    "cuisine": "coffee_shop",
    "hours": "",
    "lat": 32.598147,
    "lon": -85.4801127,
    "full_address": ""
  },
  {
    "name": "Corner Office",
    "category": "Cafe/Coffee",
    "address": "Devall Drive",
    "house_number": "540",
    "city": "Auburn",
    "state": "AL",
    "zip": "36832",
    "phone": "+1-334-649-7400",
    "website": "https://www.cornerofficeau.com/",
    "cuisine": "coffee_shop",
    "hours": "Mo-Fr 08:00-15:00",
    "lat": 32.5867104,
    "lon": -85.4931009,
    "full_address": "540 Devall Drive"
  },
  {
    "name": "Kung Fu Tea",
    "category": "Cafe/Coffee",
    "address": "North College Street",
    "house_number": "116",
    "city": "Auburn",
    "state": "AL",
    "zip": "36830",
    "phone": "",
    "website": "",
    "cuisine": "bubble_tea",
    "hours": "",
    "lat": 32.6070868,
    "lon": -85.4815366,
    "full_address": "116 North College Street"
  },
  {
    "name": "One Bike Coffee",
    "category": "Cafe/Coffee",
    "address": "South College Street",
    "house_number": "1100",
    "city": "Auburn",
    "state": "AL",
    "zip": "36830",
    "phone": "+1-334-707-3746",
    "website": "https://www.onebikecoffee.com/",
    "cuisine": "coffee_shop",
    "hours": "",
    "lat": 32.5849829,
    "lon": -85.4902071,
    "full_address": "1100 South College Street"
  },
  {
    "name": "Prevail Union",
    "category": "Cafe/Coffee",
    "address": "",
    "house_number": "",
    "city": "Auburn",
    "state": "AL",
    "zip": "",
    "phone": "",
    "website": "",
    "cuisine": "coffee_shop",
    "hours": "",
    "lat": 32.6056918,
    "lon": -85.4815377,
    "full_address": ""
  },
  {
    "name": "Ross House",
    "category": "Cafe/Coffee",
    "address": "",
    "house_number": "",
    "city": "Auburn",
    "state": "AL",
    "zip": "",
    "phone": "",
    "website": "",
    "cuisine": "",
    "hours": "",
    "lat": 32.6078531,
    "lon": -85.4747849,
    "full_address": ""
  },
  {
    "name": "Starbucks",
    "category": "Cafe/Coffee",
    "address": "Heisman Drive",
    "house_number": "255",
    "city": "Auburn",
    "state": "AL",
    "zip": "36849",
    "phone": "+1 334-844-8423",
    "website": "https://www.starbucks.com/store-locator/store/10815/auburn-university-student-ctr-255-heisman-dr-auburn-al-36849-us",
    "cuisine": "coffee_shop",
    "hours": "",
    "lat": 32.6024253,
    "lon": -85.4864291,
    "full_address": "255 Heisman Drive"
  },
  {
    "name": "The Cup & Saucer Market and Cafe",
    "category": "Cafe/Coffee",
    "address": "",
    "house_number": "",
    "city": "Auburn",
    "state": "AL",
    "zip": "",
    "phone": "",
    "website": "",
    "cuisine": "",
    "hours": "",
    "lat": 32.6146798,
    "lon": -85.4700528,
    "full_address": ""
  },
  {
    "name": "The Stop",
    "category": "Cafe/Coffee",
    "address": "",
    "house_number": "",
    "city": "Auburn",
    "state": "AL",
    "zip": "",
    "phone": "",
    "website": "",
    "cuisine": "",
    "hours": "",
    "lat": 32.5777416,
    "lon": -85.489453,
    "full_address": ""
  },
  {
    "name": "Well Red",
    "category": "Cafe/Coffee",
    "address": "Opelika Road",
    "house_number": "223",
    "city": "Auburn",
    "state": "AL",
    "zip": "36830",
    "phone": "+1-334-246-3021",
    "website": "https://www.wellredau.com/",
    "cuisine": "coffee_shop;pastry",
    "hours": "Mo-Th 07:00-21:00; Fr 07:00-22:00; Sa 08:00-22:00; Su 09:00-14:00",
    "lat": 32.6125502,
    "lon": -85.4788855,
    "full_address": "223 Opelika Road"
  },
  {
    "name": "Yummy World",
    "category": "Cafe/Coffee",
    "address": "",
    "house_number": "",
    "city": "Auburn",
    "state": "AL",
    "zip": "",
    "phone": "",
    "website": "",
    "cuisine": "bubble_tea",
    "hours": "Mo,We-Th,Su 12:00-21:00; Fr-Sa 12:00-21:30",
    "lat": 32.5757276,
    "lon": -85.4968946,
    "full_address": ""
  },
  {
    "name": "Hyundai of Auburn",
    "category": "Car Dealership",
    "address": "",
    "house_number": "",
    "city": "Auburn",
    "state": "AL",
    "zip": "",
    "phone": "",
    "website": "",
    "cuisine": "",
    "hours": "",
    "lat": 32.6179201,
    "lon": -85.463609,
    "full_address": ""
  },
  {
    "name": "Advance Auto Parts",
    "category": "Car Parts",
    "address": "Opelika Road",
    "house_number": "446",
    "city": "Auburn",
    "state": "AL",
    "zip": "36830",
    "phone": "",
    "website": "https://stores.advanceautoparts.com/al/auburn/446-opelika-rd",
    "cuisine": "",
    "hours": "",
    "lat": 32.6129312,
    "lon": -85.4734769,
    "full_address": "446 Opelika Road"
  },
  {
    "name": "Auburn Generator and Starter",
    "category": "Car Parts",
    "address": "North College Street",
    "house_number": "225",
    "city": "Auburn",
    "state": "AL",
    "zip": "36830",
    "phone": "",
    "website": "",
    "cuisine": "",
    "hours": "",
    "lat": 32.6097276,
    "lon": -85.4820538,
    "full_address": "225 North College Street"
  },
  {
    "name": "Auburn, AL - South College Street Supercharger",
    "category": "Charging Station",
    "address": "East University Drive",
    "house_number": "110",
    "city": "Auburn",
    "state": "AL",
    "zip": "36832",
    "phone": "",
    "website": "https://www.tesla.com/findus/location/supercharger/AuburnALSupercharger22",
    "cuisine": "",
    "hours": "24/7",
    "lat": 32.57645,
    "lon": -85.49764,
    "full_address": "110 East University Drive"
  },
  {
    "name": "Auburn Church of Christ",
    "category": "Church/Worship",
    "address": "South College Street",
    "house_number": "720",
    "city": "Auburn",
    "state": "AL",
    "zip": "36830",
    "phone": "",
    "website": "",
    "cuisine": "",
    "hours": "",
    "lat": 32.5922719,
    "lon": -85.4839191,
    "full_address": "720 South College Street"
  },
  {
    "name": "Auburn First Assembly Of God",
    "category": "Church/Worship",
    "address": "North College Street",
    "house_number": "447",
    "city": "Auburn",
    "state": "AL",
    "zip": "36830",
    "phone": "",
    "website": "",
    "cuisine": "",
    "hours": "",
    "lat": 32.6138087,
    "lon": -85.4813994,
    "full_address": "447 North College Street"
  },
  {
    "name": "Auburn First Baptist Church",
    "category": "Church/Worship",
    "address": "East Glenn Avenue",
    "house_number": "128",
    "city": "Auburn",
    "state": "AL",
    "zip": "36830",
    "phone": "+1-334-821-8125",
    "website": "",
    "cuisine": "",
    "hours": "",
    "lat": 32.6086981,
    "lon": -85.4808221,
    "full_address": "128 East Glenn Avenue"
  },
  {
    "name": "Auburn Unitarian Universalist Fellowship",
    "category": "Church/Worship",
    "address": "East Thach Avenue",
    "house_number": "450",
    "city": "Auburn",
    "state": "AL",
    "zip": "36830",
    "phone": "",
    "website": "",
    "cuisine": "",
    "hours": "",
    "lat": 32.6039726,
    "lon": -85.4733014,
    "full_address": "450 East Thach Avenue"
  },
  {
    "name": "Auburn United Methodist Church",
    "category": "Church/Worship",
    "address": "South Gay Street",
    "house_number": "137",
    "city": "Auburn",
    "state": "AL",
    "zip": "36830",
    "phone": "",
    "website": "https://aumc.net",
    "cuisine": "",
    "hours": "",
    "lat": 32.6056087,
    "lon": -85.478713,
    "full_address": "137 South Gay Street"
  },
  {
    "name": "Bell Baptist Church",
    "category": "Church/Worship",
    "address": "Foster Street",
    "house_number": "348",
    "city": "Auburn",
    "state": "AL",
    "zip": "36832",
    "phone": "",
    "website": "",
    "cuisine": "",
    "hours": "",
    "lat": 32.611789,
    "lon": -85.4984323,
    "full_address": "348 Foster Street"
  },
  {
    "name": "Church of Christ",
    "category": "Church/Worship",
    "address": "",
    "house_number": "",
    "city": "Auburn",
    "state": "AL",
    "zip": "",
    "phone": "",
    "website": "",
    "cuisine": "",
    "hours": "",
    "lat": 32.6106689,
    "lon": -85.4866903,
    "full_address": ""
  },
  {
    "name": "First Presbyterian Church of Auburn",
    "category": "Church/Worship",
    "address": "",
    "house_number": "",
    "city": "Auburn",
    "state": "AL",
    "zip": "",
    "phone": "",
    "website": "",
    "cuisine": "",
    "hours": "",
    "lat": 32.6045861,
    "lon": -85.4805256,
    "full_address": ""
  },
  {
    "name": "Grace United Methodist Church",
    "category": "Church/Worship",
    "address": "",
    "house_number": "",
    "city": "Auburn",
    "state": "AL",
    "zip": "",
    "phone": "",
    "website": "",
    "cuisine": "",
    "hours": "",
    "lat": 32.6100127,
    "lon": -85.4624402,
    "full_address": ""
  },
  {
    "name": "Saint Lukes Christian Methodist Episcopal Church",
    "category": "Church/Worship",
    "address": "",
    "house_number": "",
    "city": "Auburn",
    "state": "AL",
    "zip": "",
    "phone": "",
    "website": "",
    "cuisine": "",
    "hours": "",
    "lat": 32.6094133,
    "lon": -85.4905568,
    "full_address": ""
  },
  {
    "name": "St. Dunstan's The Episcopal Church",
    "category": "Church/Worship",
    "address": "East Magnolia Avenue",
    "house_number": "136",
    "city": "Auburn",
    "state": "AL",
    "zip": "36830",
    "phone": "",
    "website": "https://saintdunstans.us",
    "cuisine": "",
    "hours": "",
    "lat": 32.6062375,
    "lon": -85.4807886,
    "full_address": "136 East Magnolia Avenue"
  },
  {
    "name": "Trinity Lutheran Church",
    "category": "Church/Worship",
    "address": "South Gay Street",
    "house_number": "446",
    "city": "Auburn",
    "state": "AL",
    "zip": "36830",
    "phone": "+1-334-887-3901",
    "website": "",
    "cuisine": "",
    "hours": "",
    "lat": 32.5971818,
    "lon": -85.4802571,
    "full_address": "446 South Gay Street"
  },
  {
    "name": "True Deliverance Holiness Church",
    "category": "Church/Worship",
    "address": "North Donahue Drive",
    "house_number": "936",
    "city": "Auburn",
    "state": "AL",
    "zip": "36832",
    "phone": "",
    "website": "",
    "cuisine": "",
    "hours": "",
    "lat": 32.6236593,
    "lon": -85.4934171,
    "full_address": "936 North Donahue Drive"
  },
  {
    "name": "University Church of Christ",
    "category": "Church/Worship",
    "address": "North Gay Street",
    "house_number": "449",
    "city": "Auburn",
    "state": "AL",
    "zip": "36830",
    "phone": "",
    "website": "",
    "cuisine": "",
    "hours": "",
    "lat": 32.6136539,
    "lon": -85.4805828,
    "full_address": "449 North Gay Street"
  },
  {
    "name": "Village Christian Church",
    "category": "Church/Worship",
    "address": "",
    "house_number": "",
    "city": "Auburn",
    "state": "AL",
    "zip": "",
    "phone": "",
    "website": "",
    "cuisine": "",
    "hours": "",
    "lat": 32.5846918,
    "lon": -85.4678235,
    "full_address": ""
  },
  {
    "name": "White Street Baptist Church",
    "category": "Church/Worship",
    "address": "Carlisle Drive",
    "house_number": "535",
    "city": "Auburn",
    "state": "AL",
    "zip": "36832",
    "phone": "",
    "website": "",
    "cuisine": "",
    "hours": "",
    "lat": 32.614216,
    "lon": -85.4927661,
    "full_address": "535 Carlisle Drive"
  },
  {
    "name": "Charming Oaks Clothing Company",
    "category": "Clothing Store",
    "address": "",
    "house_number": "",
    "city": "Auburn",
    "state": "AL",
    "zip": "",
    "phone": "",
    "website": "",
    "cuisine": "",
    "hours": "",
    "lat": 32.6072911,
    "lon": -85.4818945,
    "full_address": ""
  },
  {
    "name": "DressUp",
    "category": "Clothing Store",
    "address": "",
    "house_number": "",
    "city": "Auburn",
    "state": "AL",
    "zip": "",
    "phone": "",
    "website": "",
    "cuisine": "",
    "hours": "",
    "lat": 32.6067176,
    "lon": -85.4803878,
    "full_address": ""
  },
  {
    "name": "Elisabet Boutique",
    "category": "Clothing Store",
    "address": "North College Street",
    "house_number": "124",
    "city": "Auburn",
    "state": "AL",
    "zip": "36830",
    "phone": "",
    "website": "",
    "cuisine": "",
    "hours": "",
    "lat": 32.6072198,
    "lon": -85.4815352,
    "full_address": "124 North College Street"
  },
  {
    "name": "Ellie Clothing",
    "category": "Clothing Store",
    "address": "North College Street",
    "house_number": "113",
    "city": "Auburn",
    "state": "AL",
    "zip": "36830",
    "phone": "",
    "website": "",
    "cuisine": "",
    "hours": "",
    "lat": 32.6070004,
    "lon": -85.4819156,
    "full_address": "113 North College Street"
  },
  {
    "name": "Stamp",
    "category": "Clothing Store",
    "address": "North College Street",
    "house_number": "115",
    "city": "Auburn",
    "state": "AL",
    "zip": "36832",
    "phone": "",
    "website": "https://www.stampauburn.com/",
    "cuisine": "",
    "hours": "",
    "lat": 32.6070623,
    "lon": -85.4819133,
    "full_address": "115 North College Street"
  },
  {
    "name": "Wrapsody",
    "category": "Clothing Store",
    "address": "North College Street",
    "house_number": "112",
    "city": "Auburn",
    "state": "AL",
    "zip": "",
    "phone": "",
    "website": "",
    "cuisine": "",
    "hours": "Mo-Fr 10:00-18:00; Sa 10:00-17:00",
    "lat": 32.6070271,
    "lon": -85.48154,
    "full_address": "112 North College Street"
  },
  {
    "name": "fab'rik",
    "category": "Clothing Store",
    "address": "North College Street",
    "house_number": "140",
    "city": "Auburn",
    "state": "AL",
    "zip": "36830",
    "phone": "",
    "website": "",
    "cuisine": "",
    "hours": "",
    "lat": 32.6076589,
    "lon": -85.4815159,
    "full_address": "140 North College Street"
  },
  {
    "name": "Edward Via College of Osteopathic Medicine",
    "category": "College",
    "address": "",
    "house_number": "",
    "city": "Auburn",
    "state": "AL",
    "zip": "",
    "phone": "",
    "website": "",
    "cuisine": "",
    "hours": "",
    "lat": 32.5896427,
    "lon": -85.4923309,
    "full_address": ""
  },
  {
    "name": "Carrol Commons",
    "category": "Common",
    "address": "",
    "house_number": "",
    "city": "Auburn",
    "state": "AL",
    "zip": "",
    "phone": "",
    "website": "",
    "cuisine": "",
    "hours": "",
    "lat": 32.6057478,
    "lon": -85.4875044,
    "full_address": ""
  },
  {
    "name": "Boykin Community Center",
    "category": "Community Centre",
    "address": "Boykin Street",
    "house_number": "400",
    "city": "Auburn",
    "state": "AL",
    "zip": "36832",
    "phone": "",
    "website": "",
    "cuisine": "",
    "hours": "",
    "lat": 32.6120562,
    "lon": -85.4940549,
    "full_address": "400 Boykin Street"
  },
  {
    "name": "Frank Brown Recreation Center",
    "category": "Community Centre",
    "address": "",
    "house_number": "",
    "city": "Auburn",
    "state": "AL",
    "zip": "",
    "phone": "+1-334-501-2930",
    "website": "https://www.auburnal.gov/parks/facilities/frank-brown-rec-center/",
    "cuisine": "",
    "hours": "Mo-Th 6:00-21:00; Fr 06:00-18:00; Sa 08:00-12:00; Su 13:00-18:00",
    "lat": 32.6128691,
    "lon": -85.4781605,
    "full_address": ""
  },
  {
    "name": "Alabama Power",
    "category": "Company",
    "address": "",
    "house_number": "",
    "city": "Auburn",
    "state": "AL",
    "zip": "",
    "phone": "",
    "website": "",
    "cuisine": "",
    "hours": "",
    "lat": 32.6018606,
    "lon": -85.5104663,
    "full_address": ""
  },
  {
    "name": "Archangel Solutions",
    "category": "Company",
    "address": "",
    "house_number": "",
    "city": "Auburn",
    "state": "AL",
    "zip": "",
    "phone": "",
    "website": "",
    "cuisine": "",
    "hours": "",
    "lat": 32.6025018,
    "lon": -85.5151279,
    "full_address": ""
  },
  {
    "name": "B & B Beverage Management",
    "category": "Company",
    "address": "Alabama Street",
    "house_number": "209",
    "city": "Auburn",
    "state": "AL",
    "zip": "36832",
    "phone": "+1 334 734 2468",
    "website": "https://beveragemgmt.com",
    "cuisine": "",
    "hours": "",
    "lat": 32.6037538,
    "lon": -85.5114211,
    "full_address": "209 Alabama Street"
  },
  {
    "name": "Groomingdales",
    "category": "Company",
    "address": "N Dean Rd",
    "house_number": "435",
    "city": "Auburn",
    "state": "AL",
    "zip": "36830",
    "phone": "+1-334-826-8195",
    "website": "https://www.groomingdalesal.com/",
    "cuisine": "",
    "hours": "Tu-Fr 07:30-17:30",
    "lat": 32.6139919,
    "lon": -85.4651649,
    "full_address": "435 N Dean Rd"
  },
  {
    "name": "SuperSigns Screenprinting",
    "category": "Company",
    "address": "Pumphrey Avenue",
    "house_number": "1705",
    "city": "Auburn",
    "state": "AL",
    "zip": "36832",
    "phone": "+1 800 874 7044",
    "website": "https://www.supersigns.biz/",
    "cuisine": "",
    "hours": "",
    "lat": 32.6024193,
    "lon": -85.5159044,
    "full_address": "1705 Pumphrey Avenue"
  },
  {
    "name": "VADA LLC",
    "category": "Company",
    "address": "Pumphrey Avenue",
    "house_number": "1510",
    "city": "Auburn",
    "state": "AL",
    "zip": "36832",
    "phone": "",
    "website": "",
    "cuisine": "",
    "hours": "",
    "lat": 32.6030796,
    "lon": -85.5109631,
    "full_address": "1510 Pumphrey Avenue"
  },
  {
    "name": "W. H. Tomas Oil Company",
    "category": "Company",
    "address": "Pumphrey Avenue",
    "house_number": "1525",
    "city": "Auburn",
    "state": "AL",
    "zip": "36832",
    "phone": "+1 334 246 5574",
    "website": "https://www.whthomasoil.com/",
    "cuisine": "",
    "hours": "Mo-Fr 06:00-17:00",
    "lat": 32.6024069,
    "lon": -85.5116437,
    "full_address": "1525 Pumphrey Avenue"
  },
  {
    "name": "Weston Solutions",
    "category": "Company",
    "address": "Pumphrey Avenue",
    "house_number": "1625",
    "city": "Auburn",
    "state": "AL",
    "zip": "36832",
    "phone": "+1 334 466 5600",
    "website": "https://www.westonsolutions.com",
    "cuisine": "",
    "hours": "",
    "lat": 32.6023289,
    "lon": -85.5144882,
    "full_address": "1625 Pumphrey Avenue"
  },
  {
    "name": "Woodley Enterprises",
    "category": "Computer Store",
    "address": "Temple Street",
    "house_number": "557",
    "city": "Auburn",
    "state": "AL",
    "zip": "36830",
    "phone": "",
    "website": "",
    "cuisine": "",
    "hours": "",
    "lat": 32.6161592,
    "lon": -85.4704194,
    "full_address": "557 Temple Street"
  },
  {
    "name": "The Auburn Popcorn Company",
    "category": "Confectionery",
    "address": "",
    "house_number": "",
    "city": "Auburn",
    "state": "AL",
    "zip": "",
    "phone": "",
    "website": "",
    "cuisine": "",
    "hours": "",
    "lat": 32.6069051,
    "lon": -85.4815397,
    "full_address": ""
  },
  {
    "name": "University Doughnut Company",
    "category": "Confectionery",
    "address": "",
    "house_number": "",
    "city": "Auburn",
    "state": "AL",
    "zip": "",
    "phone": "",
    "website": "",
    "cuisine": "",
    "hours": "",
    "lat": 32.606691,
    "lon": -85.4804294,
    "full_address": ""
  },
  {
    "name": "Delaware Consulting",
    "category": "Consulting",
    "address": "",
    "house_number": "",
    "city": "Auburn",
    "state": "AL",
    "zip": "",
    "phone": "",
    "website": "",
    "cuisine": "",
    "hours": "",
    "lat": 32.6067412,
    "lon": -85.4805659,
    "full_address": ""
  },
  {
    "name": "Corner Market",
    "category": "Convenience Store",
    "address": "Martin Luther King Drive",
    "house_number": "850",
    "city": "Auburn",
    "state": "AL",
    "zip": "36832",
    "phone": "",
    "website": "",
    "cuisine": "",
    "hours": "Mo-Su 07:00-9:00",
    "lat": 32.6105858,
    "lon": -85.4987266,
    "full_address": "850 Martin Luther King Drive"
  },
  {
    "name": "Grub Mart",
    "category": "Convenience Store",
    "address": "",
    "house_number": "",
    "city": "Auburn",
    "state": "AL",
    "zip": "",
    "phone": "",
    "website": "",
    "cuisine": "",
    "hours": "",
    "lat": 32.6086124,
    "lon": -85.4795,
    "full_address": ""
  },
  {
    "name": "Elbert Lee DMD",
    "category": "Dentist",
    "address": "Stage Road",
    "house_number": "827",
    "city": "Auburn",
    "state": "AL",
    "zip": "36830",
    "phone": "",
    "website": "",
    "cuisine": "",
    "hours": "",
    "lat": 32.615186,
    "lon": -85.4635339,
    "full_address": "827 Stage Road"
  },
  {
    "name": "Professional Cleaners",
    "category": "Dry Cleaning",
    "address": "North Dean Road",
    "house_number": "300",
    "city": "Auburn",
    "state": "AL",
    "zip": "",
    "phone": "+1-334-826-0273",
    "website": "",
    "cuisine": "",
    "hours": "Mo-Fr 07:00-18:00; Sa 08:00-12:00",
    "lat": 32.6112351,
    "lon": -85.4640432,
    "full_address": "300 North Dean Road"
  },
  {
    "name": "Vapor Craft",
    "category": "E-Cigarette",
    "address": "",
    "house_number": "",
    "city": "Auburn",
    "state": "AL",
    "zip": "",
    "phone": "",
    "website": "",
    "cuisine": "",
    "hours": "",
    "lat": 32.6095674,
    "lon": -85.4819266,
    "full_address": ""
  },
  {
    "name": "Mises Institute",
    "category": "Educational Institution",
    "address": "West Magnolia Avenue",
    "house_number": "518",
    "city": "Auburn",
    "state": "AL",
    "zip": "36832",
    "phone": "",
    "website": "",
    "cuisine": "",
    "hours": "",
    "lat": 32.6068276,
    "lon": -85.4911305,
    "full_address": "518 West Magnolia Avenue"
  },
  {
    "name": "Love Stuff",
    "category": "Erotic",
    "address": "",
    "house_number": "",
    "city": "Auburn",
    "state": "AL",
    "zip": "",
    "phone": "",
    "website": "",
    "cuisine": "",
    "hours": "",
    "lat": 32.57555,
    "lon": -85.4969655,
    "full_address": ""
  },
  {
    "name": "Auburn Realty",
    "category": "Estate Agent",
    "address": "",
    "house_number": "",
    "city": "Auburn",
    "state": "AL",
    "zip": "",
    "phone": "",
    "website": "",
    "cuisine": "",
    "hours": "",
    "lat": 32.6089054,
    "lon": -85.4841618,
    "full_address": ""
  },
  {
    "name": "Garden District Main Office",
    "category": "Estate Agent",
    "address": "",
    "house_number": "",
    "city": "Auburn",
    "state": "AL",
    "zip": "",
    "phone": "",
    "website": "",
    "cuisine": "",
    "hours": "",
    "lat": 32.5777275,
    "lon": -85.4899136,
    "full_address": ""
  },
  {
    "name": "Liberty Properties",
    "category": "Estate Agent",
    "address": "",
    "house_number": "",
    "city": "Auburn",
    "state": "AL",
    "zip": "",
    "phone": "",
    "website": "",
    "cuisine": "",
    "hours": "",
    "lat": 32.6107086,
    "lon": -85.4814773,
    "full_address": ""
  },
  {
    "name": "Northcutt Realty",
    "category": "Estate Agent",
    "address": "South Gay Street",
    "house_number": "248",
    "city": "Auburn",
    "state": "AL",
    "zip": "36830",
    "phone": "+1 334-826-7720",
    "website": "https://www.northcuttrealty.com/",
    "cuisine": "",
    "hours": "Mo-Fr 08:30-17:00",
    "lat": 32.6026316,
    "lon": -85.4803767,
    "full_address": "248 South Gay Street"
  },
  {
    "name": "Prestige Properties",
    "category": "Estate Agent",
    "address": "North Dean Road",
    "house_number": "103",
    "city": "Auburn",
    "state": "AL",
    "zip": "",
    "phone": "+1-334-887-5274",
    "website": "",
    "cuisine": "",
    "hours": "",
    "lat": 32.6154954,
    "lon": -85.4639784,
    "full_address": "103 North Dean Road"
  },
  {
    "name": "Weichert Realtors Porter Properties",
    "category": "Estate Agent",
    "address": "North Dean Road",
    "house_number": "472",
    "city": "Auburn",
    "state": "AL",
    "zip": "36830",
    "phone": "+1-334-887-2070",
    "website": "",
    "cuisine": "",
    "hours": "Mo-Fr 08:00-17:00",
    "lat": 32.6157196,
    "lon": -85.4639664,
    "full_address": "472 North Dean Road"
  },
  {
    "name": "BurgerFi",
    "category": "Fast Food",
    "address": "South College Street",
    "house_number": "339",
    "city": "Auburn",
    "state": "AL",
    "zip": "36830",
    "phone": "+1-334-521-5030",
    "website": "",
    "cuisine": "burger",
    "hours": "",
    "lat": 32.5999194,
    "lon": -85.4815552,
    "full_address": "339 South College Street"
  },
  {
    "name": "Chick-fil-A",
    "category": "Fast Food",
    "address": "Heisman Drive",
    "house_number": "255",
    "city": "Auburn",
    "state": "AL",
    "zip": "36849",
    "phone": "+1 334-844-1284",
    "website": "https://www.chick-fil-a.com/locations/al/auburn-university",
    "cuisine": "chicken",
    "hours": "Mo-Th 07:30-20:00; Fr 07:30-17:00; Su off",
    "lat": 32.6020469,
    "lon": -85.4869481,
    "full_address": "255 Heisman Drive"
  },
  {
    "name": "Chipotle",
    "category": "Fast Food",
    "address": "West Magnolia Avenue",
    "house_number": "346",
    "city": "Auburn",
    "state": "AL",
    "zip": "36832",
    "phone": "+1 334-821-7740",
    "website": "https://locations.chipotle.com/al/auburn/346-w-magnolia-ave",
    "cuisine": "mexican",
    "hours": "Mo-Su 10:45-23:00",
    "lat": 32.6068041,
    "lon": -85.4873209,
    "full_address": "346 West Magnolia Avenue"
  },
  {
    "name": "Domino's",
    "category": "Fast Food",
    "address": "South College Street",
    "house_number": "1100",
    "city": "Auburn",
    "state": "AL",
    "zip": "36830",
    "phone": "+1 334-539-4040",
    "website": "https://pizza.dominos.com/alabama/auburn/1100-s-college-st",
    "cuisine": "pizza",
    "hours": "Mo-Th 10:00-24:00; Fr-Sa 10:00-01:00; Su 10:00-24:00",
    "lat": 32.5847695,
    "lon": -85.4899815,
    "full_address": "1100 South College Street"
  },
  {
    "name": "Dunkin'",
    "category": "Fast Food",
    "address": "North College Street",
    "house_number": "171",
    "city": "Auburn",
    "state": "AL",
    "zip": "36830",
    "phone": "+1 334-707-8552",
    "website": "https://locations.dunkindonuts.com/en/al/auburn/171-n-college-st/359341",
    "cuisine": "donut;coffee_shop",
    "hours": "06:00-18:00",
    "lat": 32.6086863,
    "lon": -85.4819218,
    "full_address": "171 North College Street"
  },
  {
    "name": "Einstein Bros. Bagels",
    "category": "Fast Food",
    "address": "West Thach Concourse",
    "house_number": "351",
    "city": "Auburn",
    "state": "AL",
    "zip": "36849",
    "phone": "+1 800-224-3563",
    "website": "https://locations.einsteinbros.com/us/al/auburn/351-west-thach-concourse",
    "cuisine": "bagel",
    "hours": "Oct 03-May 16 Mo-Th 07:00-15:00; Fr 07:00-14:00",
    "lat": 32.603779,
    "lon": -85.4868767,
    "full_address": "351 West Thach Concourse"
  },
  {
    "name": "Foosackly's",
    "category": "Fast Food",
    "address": "North Dean Road",
    "house_number": "131",
    "city": "Auburn",
    "state": "AL",
    "zip": "36830",
    "phone": "",
    "website": "",
    "cuisine": "chicken",
    "hours": "",
    "lat": 32.6076001,
    "lon": -85.4653911,
    "full_address": "131 North Dean Road"
  },
  {
    "name": "Guthrie's",
    "category": "Fast Food",
    "address": "",
    "house_number": "",
    "city": "Auburn",
    "state": "AL",
    "zip": "",
    "phone": "",
    "website": "",
    "cuisine": "chicken",
    "hours": "",
    "lat": 32.6093608,
    "lon": -85.4811547,
    "full_address": ""
  },
  {
    "name": "Hardee's",
    "category": "Fast Food",
    "address": "Wire Road",
    "house_number": "800",
    "city": "Auburn",
    "state": "AL",
    "zip": "36832",
    "phone": "+1 334-329-7028",
    "website": "https://locations.hardees.com/al/auburn/800-wire-rd",
    "cuisine": "burger",
    "hours": "",
    "lat": 32.593257,
    "lon": -85.5054262,
    "full_address": "800 Wire Road"
  },
  {
    "name": "Jack's",
    "category": "Fast Food",
    "address": "",
    "house_number": "",
    "city": "Auburn",
    "state": "AL",
    "zip": "",
    "phone": "",
    "website": "https://locations.eatatjacks.com/al/auburn/1645-s-college-street/",
    "cuisine": "burger",
    "hours": "Mo-Th 05:00-22:00; Fr-Sa 05:00-23:00; Su 06:00-22:00",
    "lat": 32.5759663,
    "lon": -85.4980389,
    "full_address": ""
  },
  {
    "name": "Jimmy John's",
    "category": "Fast Food",
    "address": "North College Street",
    "house_number": "126",
    "city": "Auburn",
    "state": "AL",
    "zip": "36830",
    "phone": "+1 334-502-0444",
    "website": "https://locations.jimmyjohns.com/al/auburn/sandwiches-553.html",
    "cuisine": "sandwich",
    "hours": "",
    "lat": 32.6072838,
    "lon": -85.4815417,
    "full_address": "126 North College Street"
  },
  {
    "name": "Little Caesars",
    "category": "Fast Food",
    "address": "",
    "house_number": "",
    "city": "Auburn",
    "state": "AL",
    "zip": "",
    "phone": "",
    "website": "https://littlecaesars.com/en-us/store/7577/",
    "cuisine": "pizza",
    "hours": "Mo-Su 10:30-22:00",
    "lat": 32.5760046,
    "lon": -85.4967871,
    "full_address": ""
  },
  {
    "name": "McDonald's",
    "category": "Fast Food",
    "address": "West Magnolia Avenue",
    "house_number": "224",
    "city": "Auburn",
    "state": "AL",
    "zip": "36830",
    "phone": "+1 334-821-7185",
    "website": "https://www.mcdonalds.com/us/en-us/location/3427.html",
    "cuisine": "burger",
    "hours": "24/7",
    "lat": 32.6070807,
    "lon": -85.4838628,
    "full_address": "224 West Magnolia Avenue"
  },
  {
    "name": "Mochiatsu",
    "category": "Fast Food",
    "address": "North College Street",
    "house_number": "132",
    "city": "Auburn",
    "state": "AL",
    "zip": "36830",
    "phone": "",
    "website": "https://www.mochiatsu.com/",
    "cuisine": "donut",
    "hours": "",
    "lat": 32.6074878,
    "lon": -85.4815248,
    "full_address": "132 North College Street"
  },
  {
    "name": "Panda Express",
    "category": "Fast Food",
    "address": "Wilmore Drive",
    "house_number": "1310",
    "city": "Auburn",
    "state": "AL",
    "zip": "36849",
    "phone": "+1 334-844-1818",
    "website": "https://www.pandaexpress.com/locations/al/auburn/2010",
    "cuisine": "chinese",
    "hours": "Mo-Fr 10:00-21:00",
    "lat": 32.6048795,
    "lon": -85.4852165,
    "full_address": "1310 Wilmore Drive"
  },
  {
    "name": "Panera Bread",
    "category": "Fast Food",
    "address": "Mell Street",
    "house_number": "231",
    "city": "Auburn",
    "state": "AL",
    "zip": "36849",
    "phone": "+1 334-844-9271",
    "website": "https://locations.panerabread.com/al/auburn/231-mell-st.html",
    "cuisine": "sandwich;bakery",
    "hours": "Mo-Th 00:00-24:00; Fr 00:00-17:00; Sa 09:00-17:00; Su 13:00-24:00",
    "lat": 32.6029548,
    "lon": -85.4827267,
    "full_address": "231 Mell Street"
  },
  {
    "name": "Papa John's",
    "category": "Fast Food",
    "address": "North College Street",
    "house_number": "211",
    "city": "Auburn",
    "state": "AL",
    "zip": "36830",
    "phone": "+1 334-826-7272",
    "website": "https://locations.papajohns.com/united-states/al/36830/auburn/211-n-college-st",
    "cuisine": "pizza",
    "hours": "Mo-Th 10:30-23:00; Fr-Sa 10:30-00:30; Su 10:30-23:00",
    "lat": 32.6093995,
    "lon": -85.4819311,
    "full_address": "211 North College Street"
  },
  {
    "name": "Smoothie King",
    "category": "Fast Food",
    "address": "",
    "house_number": "",
    "city": "Auburn",
    "state": "AL",
    "zip": "",
    "phone": "",
    "website": "",
    "cuisine": "juice",
    "hours": "",
    "lat": 32.5794888,
    "lon": -85.4958099,
    "full_address": ""
  },
  {
    "name": "Sonic",
    "category": "Fast Food",
    "address": "North Dean Road",
    "house_number": "322",
    "city": "Auburn",
    "state": "AL",
    "zip": "36830",
    "phone": "+1 334-821-6235",
    "website": "https://locations.sonicdrivein.com/al/auburn/322-north-dean-road.html",
    "cuisine": "burger",
    "hours": "Mo-Fr 07:00-02:00; Sa-Su 08:00-02:00",
    "lat": 32.6115973,
    "lon": -85.4641119,
    "full_address": "322 North Dean Road"
  },
  {
    "name": "Subway",
    "category": "Fast Food",
    "address": "West Magnolia Avenue",
    "house_number": "334",
    "city": "Auburn",
    "state": "AL",
    "zip": "36832",
    "phone": "+1 334-826-2476",
    "website": "https://restaurants.subway.com/united-states/al/auburn/334-w-magnolia-ave",
    "cuisine": "sandwich",
    "hours": "08:00-21:00",
    "lat": 32.6067224,
    "lon": -85.4866658,
    "full_address": "334 West Magnolia Avenue"
  },
  {
    "name": "Taco Bell",
    "category": "Fast Food",
    "address": "South Gay Street",
    "house_number": "271",
    "city": "Auburn",
    "state": "AL",
    "zip": "36830",
    "phone": "+1 334-821-2017",
    "website": "https://locations.tacobell.com/al/auburn/271-s-gay-st.html",
    "cuisine": "tex-mex",
    "hours": "08:00-02:00",
    "lat": 32.6017506,
    "lon": -85.4796213,
    "full_address": "271 South Gay Street"
  },
  {
    "name": "Taco Mama",
    "category": "Fast Food",
    "address": "East Magnolia Avenue",
    "house_number": "149",
    "city": "Auburn",
    "state": "AL",
    "zip": "36830",
    "phone": "+1-334-734-5030",
    "website": "http://www.tacomamaonline.com/auburn/",
    "cuisine": "mexican",
    "hours": "Su-Th 11:00-21:30, Fr-Sa 11:00-22:30",
    "lat": 32.6066923,
    "lon": -85.4804866,
    "full_address": "149 East Magnolia Avenue"
  },
  {
    "name": "Taziki's Mediterranean Cafe",
    "category": "Fast Food",
    "address": "South College Street",
    "house_number": "339",
    "city": "Auburn",
    "state": "AL",
    "zip": "36830",
    "phone": "",
    "website": "",
    "cuisine": "mediterranean",
    "hours": "",
    "lat": 32.5996554,
    "lon": -85.4815956,
    "full_address": "339 South College Street"
  },
  {
    "name": "The Edge at Central Dining",
    "category": "Fast Food",
    "address": "",
    "house_number": "",
    "city": "Auburn",
    "state": "AL",
    "zip": "",
    "phone": "",
    "website": "",
    "cuisine": "",
    "hours": "",
    "lat": 32.6002844,
    "lon": -85.4875047,
    "full_address": ""
  },
  {
    "name": "Willie's Wings and Stuff",
    "category": "Fast Food",
    "address": "South Gay Street",
    "house_number": "422-b",
    "city": "Auburn",
    "state": "AL",
    "zip": "36830",
    "phone": "",
    "website": "",
    "cuisine": "wings",
    "hours": "",
    "lat": 32.5980365,
    "lon": -85.4802985,
    "full_address": "422-b South Gay Street"
  },
  {
    "name": "Wings Etc.",
    "category": "Fast Food",
    "address": "West Glenn Avenue",
    "house_number": "201",
    "city": "Auburn",
    "state": "AL",
    "zip": "36830",
    "phone": "+1-334-521-5095",
    "website": "https://wingsetc.com/",
    "cuisine": "chicken",
    "hours": "Mo-Th 11:00-23:00, Fr-Sa 11:00-24:00, Su 11:00-22:00",
    "lat": 32.6088757,
    "lon": -85.4833081,
    "full_address": "201 West Glenn Avenue"
  },
  {
    "name": "Wingstop",
    "category": "Fast Food",
    "address": "North Dean Road",
    "house_number": "231",
    "city": "Auburn",
    "state": "AL",
    "zip": "36830",
    "phone": "+1 334-780-9464",
    "website": "",
    "cuisine": "wings",
    "hours": "",
    "lat": 32.610123,
    "lon": -85.4653343,
    "full_address": "231 North Dean Road"
  },
  {
    "name": "Security Finance",
    "category": "Financial",
    "address": "",
    "house_number": "",
    "city": "Auburn",
    "state": "AL",
    "zip": "",
    "phone": "",
    "website": "",
    "cuisine": "",
    "hours": "",
    "lat": 32.6145852,
    "lon": -85.4701678,
    "full_address": ""
  },
  {
    "name": "Auburn Fire Department, Station #1",
    "category": "Fire Station",
    "address": "",
    "house_number": "",
    "city": "Auburn",
    "state": "AL",
    "zip": "",
    "phone": "",
    "website": "",
    "cuisine": "",
    "hours": "",
    "lat": 32.6071359,
    "lon": -85.4755023,
    "full_address": ""
  },
  {
    "name": "Ann Vance Ginn Plaza Fountain",
    "category": "Fountain",
    "address": "",
    "house_number": "",
    "city": "Auburn",
    "state": "AL",
    "zip": "",
    "phone": "",
    "website": "",
    "cuisine": "",
    "hours": "",
    "lat": 32.6056007,
    "lon": -85.4864906,
    "full_address": ""
  },
  {
    "name": "Anne Terrell Basore Memorial Garden",
    "category": "Garden",
    "address": "",
    "house_number": "",
    "city": "Auburn",
    "state": "AL",
    "zip": "",
    "phone": "",
    "website": "",
    "cuisine": "",
    "hours": "",
    "lat": 32.6051309,
    "lon": -85.4828463,
    "full_address": ""
  },
  {
    "name": "Carnivorous Plant Garden",
    "category": "Garden",
    "address": "",
    "house_number": "",
    "city": "Auburn",
    "state": "AL",
    "zip": "",
    "phone": "",
    "website": "",
    "cuisine": "",
    "hours": "",
    "lat": 32.5947657,
    "lon": -85.4838413,
    "full_address": ""
  },
  {
    "name": "Centennial Garden",
    "category": "Garden",
    "address": "",
    "house_number": "",
    "city": "Auburn",
    "state": "AL",
    "zip": "",
    "phone": "",
    "website": "",
    "cuisine": "",
    "hours": "",
    "lat": 32.6044468,
    "lon": -85.4838568,
    "full_address": ""
  },
  {
    "name": "Chevron",
    "category": "Gas Station",
    "address": "",
    "house_number": "",
    "city": "Auburn",
    "state": "AL",
    "zip": "",
    "phone": "",
    "website": "",
    "cuisine": "",
    "hours": "",
    "lat": 32.5777535,
    "lon": -85.4971886,
    "full_address": ""
  },
  {
    "name": "Circle K",
    "category": "Gas Station",
    "address": "",
    "house_number": "",
    "city": "Auburn",
    "state": "AL",
    "zip": "",
    "phone": "",
    "website": "",
    "cuisine": "",
    "hours": "",
    "lat": 32.5931578,
    "lon": -85.5060201,
    "full_address": ""
  },
  {
    "name": "Exxon",
    "category": "Gas Station",
    "address": "",
    "house_number": "",
    "city": "Auburn",
    "state": "AL",
    "zip": "",
    "phone": "",
    "website": "",
    "cuisine": "",
    "hours": "",
    "lat": 32.5985938,
    "lon": -85.4802792,
    "full_address": ""
  },
  {
    "name": "Marathon",
    "category": "Gas Station",
    "address": "",
    "house_number": "",
    "city": "Auburn",
    "state": "AL",
    "zip": "",
    "phone": "",
    "website": "",
    "cuisine": "",
    "hours": "",
    "lat": 32.6161366,
    "lon": -85.4649301,
    "full_address": ""
  },
  {
    "name": "Shell",
    "category": "Gas Station",
    "address": "",
    "house_number": "",
    "city": "Auburn",
    "state": "AL",
    "zip": "",
    "phone": "",
    "website": "",
    "cuisine": "",
    "hours": "",
    "lat": 32.6138468,
    "lon": -85.4718036,
    "full_address": ""
  },
  {
    "name": "SCO (Saco)",
    "category": "Gas Station",
    "address": "Opelika Road",
    "house_number": "802",
    "city": "Auburn",
    "state": "AL",
    "zip": "36830",
    "phone": "+1-334-246-3830",
    "website": "",
    "cuisine": "",
    "hours": "",
    "lat": 32.6165353,
    "lon": -85.4640754,
    "full_address": "802 Opelika Road"
  },
  {
    "name": "Valero",
    "category": "Gas Station",
    "address": "",
    "house_number": "",
    "city": "Auburn",
    "state": "AL",
    "zip": "",
    "phone": "",
    "website": "https://locations.valero.com/en-us/LocationDetails/Index/435-N-DEAN-RD/0000024721",
    "cuisine": "",
    "hours": "",
    "lat": 32.614186,
    "lon": -85.4649488,
    "full_address": ""
  },
  {
    "name": "Toomer's Drugs",
    "category": "General",
    "address": "North College Street",
    "house_number": "100",
    "city": "Auburn",
    "state": "AL",
    "zip": "36830",
    "phone": "+1-334-887-3488",
    "website": "http://www.toomersdrugs.com/",
    "cuisine": "",
    "hours": "Su 12:00-17:00, Mo-Fr 10:00-18:00, Sa 10:00-19:00",
    "lat": 32.6067044,
    "lon": -85.4815391,
    "full_address": "100 North College Street"
  },
  {
    "name": "Auburn Flowers and Gifts",
    "category": "Gift",
    "address": "",
    "house_number": "",
    "city": "Auburn",
    "state": "AL",
    "zip": "",
    "phone": "",
    "website": "",
    "cuisine": "",
    "hours": "",
    "lat": 32.6094788,
    "lon": -85.4819274,
    "full_address": ""
  },
  {
    "name": "Bailey-Alexander Complex",
    "category": "Government",
    "address": "West Samford Avenue",
    "house_number": "1501",
    "city": "Auburn",
    "state": "AL",
    "zip": "36832",
    "phone": "",
    "website": "",
    "cuisine": "",
    "hours": "",
    "lat": 32.600056,
    "lon": -85.5099456,
    "full_address": "1501 West Samford Avenue"
  },
  {
    "name": "Westview Cemetery",
    "category": "Grave Yard",
    "address": "Westview Drive",
    "house_number": "700",
    "city": "Auburn",
    "state": "AL",
    "zip": "36830",
    "phone": "",
    "website": "https://www.auburnalabama.org/parks/facilities/westview-cemetery/",
    "cuisine": "",
    "hours": "",
    "lat": 32.6204128,
    "lon": -85.4955298,
    "full_address": "700 Westview Drive"
  },
  {
    "name": "Aldi",
    "category": "Grocery/Supermarket",
    "address": "South College Street",
    "house_number": "1617",
    "city": "Auburn",
    "state": "AL",
    "zip": "36832",
    "phone": "",
    "website": "",
    "cuisine": "",
    "hours": "",
    "lat": 32.5762905,
    "lon": -85.4967187,
    "full_address": "1617 South College Street"
  },
  {
    "name": "Kroger",
    "category": "Grocery/Supermarket",
    "address": "North Dean Road",
    "house_number": "300",
    "city": "Auburn",
    "state": "AL",
    "zip": "36830",
    "phone": "+1 334-821-1325",
    "website": "https://www.kroger.com/stores/grocery/al/auburn/corner-village/011/00260",
    "cuisine": "",
    "hours": "Mo-Su 06:00-23:00",
    "lat": 32.6105188,
    "lon": -85.4634465,
    "full_address": "300 North Dean Road"
  },
  {
    "name": "Publix",
    "category": "Grocery/Supermarket",
    "address": "South Gay Street",
    "house_number": "138",
    "city": "Auburn",
    "state": "AL",
    "zip": "36830",
    "phone": "+1 334-502-3616",
    "website": "https://www.publix.com/locations/1822",
    "cuisine": "",
    "hours": "Mo-Su 07:00-22:00",
    "lat": 32.6053305,
    "lon": -85.4808115,
    "full_address": "138 South Gay Street"
  },
  {
    "name": "Crossfit On the Plains",
    "category": "Gym/Fitness",
    "address": "North Dean Road",
    "house_number": "467",
    "city": "Auburn",
    "state": "AL",
    "zip": "36830",
    "phone": "",
    "website": "",
    "cuisine": "",
    "hours": "",
    "lat": 32.614553,
    "lon": -85.4657378,
    "full_address": "467 North Dean Road"
  },
  {
    "name": "Max Fitness",
    "category": "Gym/Fitness",
    "address": "",
    "house_number": "",
    "city": "Auburn",
    "state": "AL",
    "zip": "",
    "phone": "",
    "website": "",
    "cuisine": "",
    "hours": "",
    "lat": 32.5797413,
    "lon": -85.4919501,
    "full_address": ""
  },
  {
    "name": "My Gym",
    "category": "Gym/Fitness",
    "address": "North Dean Road",
    "house_number": "300",
    "city": "Auburn",
    "state": "AL",
    "zip": "",
    "phone": "",
    "website": "",
    "cuisine": "",
    "hours": "",
    "lat": 32.6112028,
    "lon": -85.4635359,
    "full_address": "300 North Dean Road"
  },
  {
    "name": "Tiger Iron Gym",
    "category": "Gym/Fitness",
    "address": "South College Street",
    "house_number": "1655",
    "city": "Auburn",
    "state": "AL",
    "zip": "36832",
    "phone": "",
    "website": "",
    "cuisine": "",
    "hours": "",
    "lat": 32.5752982,
    "lon": -85.4970578,
    "full_address": "1655 South College Street"
  },
  {
    "name": "Campus Barber Shop",
    "category": "Hair Salon/Barber",
    "address": "",
    "house_number": "",
    "city": "Auburn",
    "state": "AL",
    "zip": "",
    "phone": "",
    "website": "",
    "cuisine": "",
    "hours": "",
    "lat": 32.6069401,
    "lon": -85.4818883,
    "full_address": ""
  },
  {
    "name": "Great Clips",
    "category": "Hair Salon/Barber",
    "address": "",
    "house_number": "",
    "city": "Auburn",
    "state": "AL",
    "zip": "",
    "phone": "",
    "website": "",
    "cuisine": "",
    "hours": "",
    "lat": 32.6095756,
    "lon": -85.463684,
    "full_address": ""
  },
  {
    "name": "Precision Cuts Barber & Beauty",
    "category": "Hair Salon/Barber",
    "address": "",
    "house_number": "",
    "city": "Auburn",
    "state": "AL",
    "zip": "",
    "phone": "",
    "website": "",
    "cuisine": "",
    "hours": "",
    "lat": 32.6132148,
    "lon": -85.4756287,
    "full_address": ""
  },
  {
    "name": "Statik Salon",
    "category": "Hair Salon/Barber",
    "address": "South College Street",
    "house_number": "1100",
    "city": "Auburn",
    "state": "AL",
    "zip": "36830",
    "phone": "+1-334-821-5555",
    "website": "https://www.statiksalonauburn.com",
    "cuisine": "",
    "hours": "Tu-Fr 10:00-18:00; Sa 10:00-15:00",
    "lat": 32.5848947,
    "lon": -85.4900944,
    "full_address": "1100 South College Street"
  },
  {
    "name": "Unique Image",
    "category": "Hair Salon/Barber",
    "address": "Opelika Road",
    "house_number": "460",
    "city": "Auburn",
    "state": "AL",
    "zip": "36830",
    "phone": "",
    "website": "",
    "cuisine": "",
    "hours": "",
    "lat": 32.6131602,
    "lon": -85.4728898,
    "full_address": "460 Opelika Road"
  },
  {
    "name": "Auburn Hardware",
    "category": "Hardware Store",
    "address": "East Magnolia Avenue",
    "house_number": "117",
    "city": "Auburn",
    "state": "AL",
    "zip": "36830",
    "phone": "",
    "website": "",
    "cuisine": "",
    "hours": "",
    "lat": 32.6068033,
    "lon": -85.4812057,
    "full_address": "117 East Magnolia Avenue"
  },
  {
    "name": "Russell Building Supply",
    "category": "Hardware Store",
    "address": "Bragg Avenue",
    "house_number": "141",
    "city": "Auburn",
    "state": "AL",
    "zip": "36830",
    "phone": "",
    "website": "",
    "cuisine": "",
    "hours": "",
    "lat": 32.6108055,
    "lon": -85.4845711,
    "full_address": "141 Bragg Avenue"
  },
  {
    "name": "Auburn University Medical Clinic",
    "category": "Hospital/Medical",
    "address": "Lem Morrison Drive",
    "house_number": "400",
    "city": "Auburn",
    "state": "AL",
    "zip": "36849",
    "phone": "",
    "website": "https://cws.auburn.edu/aumc/",
    "cuisine": "",
    "hours": "",
    "lat": 32.5931187,
    "lon": -85.488034,
    "full_address": "400 Lem Morrison Drive"
  },
  {
    "name": "Dr. Lo's Chiropractor Service",
    "category": "Hospital/Medical",
    "address": "North Dean Road",
    "house_number": "",
    "city": "Auburn",
    "state": "AL",
    "zip": "",
    "phone": "",
    "website": "",
    "cuisine": "",
    "hours": "",
    "lat": 32.6112315,
    "lon": -85.4639141,
    "full_address": "North Dean Road"
  },
  {
    "name": "East Alabama Medical Center Freestanding Emergency Department",
    "category": "Hospital/Medical",
    "address": "Camp Auburn Road",
    "house_number": "900",
    "city": "Auburn",
    "state": "AL",
    "zip": "36832",
    "phone": "+1 334 364 3000",
    "website": "",
    "cuisine": "",
    "hours": "",
    "lat": 32.5845503,
    "lon": -85.500735,
    "full_address": "900 Camp Auburn Road"
  },
  {
    "name": "AC Hotel Auburn",
    "category": "Hotel/Lodging",
    "address": "North Gay Street",
    "house_number": "146",
    "city": "Auburn",
    "state": "AL",
    "zip": "36830",
    "phone": "+1-334-591-1116",
    "website": "https://www.marriott.com/en-us/hotels/csgar-ac-hotel-auburn/overview/",
    "cuisine": "",
    "hours": "",
    "lat": 32.6079936,
    "lon": -85.4797174,
    "full_address": "146 North Gay Street"
  },
  {
    "name": "Auburn University Hotel and Dixon Conference Center",
    "category": "Hotel/Lodging",
    "address": "South College Street",
    "house_number": "241",
    "city": "Auburn",
    "state": "AL",
    "zip": "36849",
    "phone": "+1-334-821-8200",
    "website": "https://www.auhcc.com/",
    "cuisine": "",
    "hours": "",
    "lat": 32.6029392,
    "lon": -85.4809584,
    "full_address": "241 South College Street"
  },
  {
    "name": "Graduate by Hilton Auburn AL",
    "category": "Hotel/Lodging",
    "address": "West Magnolia Avenue",
    "house_number": "202",
    "city": "Auburn",
    "state": "AL",
    "zip": "36830",
    "phone": "+1 334 752 4100",
    "website": "https://www.hilton.com/en/hotels/aubgagu-graduate-auburn-al/",
    "cuisine": "",
    "hours": "",
    "lat": 32.6070181,
    "lon": -85.4833282,
    "full_address": "202 West Magnolia Avenue"
  },
  {
    "name": "The Collegiate Hotel at Auburn",
    "category": "Hotel/Lodging",
    "address": "South Gay Street",
    "house_number": "205",
    "city": "Auburn",
    "state": "AL",
    "zip": "36830",
    "phone": "+1-334-821-2646",
    "website": "https://staycoho.com/",
    "cuisine": "",
    "hours": "",
    "lat": 32.6039219,
    "lon": -85.4795779,
    "full_address": "205 South Gay Street"
  },
  {
    "name": "Towneplace Suites",
    "category": "Hotel/Lodging",
    "address": "South College Street",
    "house_number": "1117",
    "city": "Auburn",
    "state": "AL",
    "zip": "36832",
    "phone": "+1 334-466-8390",
    "website": "https://www.marriott.com/csgau",
    "cuisine": "",
    "hours": "",
    "lat": 32.5830914,
    "lon": -85.4897944,
    "full_address": "1117 South College Street"
  },
  {
    "name": "Sno Biz",
    "category": "Ice Cream/Dessert",
    "address": "",
    "house_number": "",
    "city": "Auburn",
    "state": "AL",
    "zip": "",
    "phone": "",
    "website": "",
    "cuisine": "",
    "hours": "",
    "lat": 32.5763932,
    "lon": -85.4979833,
    "full_address": ""
  },
  {
    "name": "TCBY",
    "category": "Ice Cream/Dessert",
    "address": "North Dean Road",
    "house_number": "300",
    "city": "Auburn",
    "state": "AL",
    "zip": "36830",
    "phone": "+1-334-826-8828",
    "website": "",
    "cuisine": "frozen_yogurt",
    "hours": "Su 12:00-23:00, Mo-Sa 11:00-23:00",
    "lat": 32.6112328,
    "lon": -85.463778,
    "full_address": "300 North Dean Road"
  },
  {
    "name": "The Yard Milkshake Bar",
    "category": "Ice Cream/Dessert",
    "address": "North College Street",
    "house_number": "147",
    "city": "Auburn",
    "state": "AL",
    "zip": "36830",
    "phone": "",
    "website": "",
    "cuisine": "",
    "hours": "",
    "lat": 32.6079032,
    "lon": -85.481941,
    "full_address": "147 North College Street"
  },
  {
    "name": "Foy Information Helpdesk",
    "category": "Information",
    "address": "",
    "house_number": "",
    "city": "Auburn",
    "state": "AL",
    "zip": "",
    "phone": "+1 334 844 4244",
    "website": "",
    "cuisine": "",
    "hours": "",
    "lat": 32.6022638,
    "lon": -85.4868945,
    "full_address": ""
  },
  {
    "name": "Insurance Solutions Group",
    "category": "Insurance",
    "address": "",
    "house_number": "",
    "city": "Auburn",
    "state": "AL",
    "zip": "",
    "phone": "",
    "website": "",
    "cuisine": "",
    "hours": "",
    "lat": 32.615786,
    "lon": -85.4638704,
    "full_address": ""
  },
  {
    "name": "Reli, Inc.",
    "category": "Insurance",
    "address": "",
    "house_number": "",
    "city": "Auburn",
    "state": "AL",
    "zip": "",
    "phone": "",
    "website": "",
    "cuisine": "",
    "hours": "",
    "lat": 32.6157681,
    "lon": -85.4639628,
    "full_address": ""
  },
  {
    "name": "ATS Alabama Corporation",
    "category": "It",
    "address": "Shug Jordan Parkway",
    "house_number": "933",
    "city": "Auburn",
    "state": "AL",
    "zip": "36832",
    "phone": "",
    "website": "",
    "cuisine": "",
    "hours": "",
    "lat": 32.6038952,
    "lon": -85.50873,
    "full_address": "933 Shug Jordan Parkway"
  },
  {
    "name": "Jewelry by Design",
    "category": "Jewelry",
    "address": "North Dean Road",
    "house_number": "590",
    "city": "Auburn",
    "state": "AL",
    "zip": "36830",
    "phone": "+1-334-821-9940",
    "website": "",
    "cuisine": "",
    "hours": "Mo-Fr 10:00-18:00, Sa 10:00-17:00",
    "lat": 32.6192631,
    "lon": -85.4640875,
    "full_address": "590 North Dean Road"
  },
  {
    "name": "Ware Jewellers",
    "category": "Jewelry",
    "address": "South College Street",
    "house_number": "111",
    "city": "Auburn",
    "state": "AL",
    "zip": "36830",
    "phone": "",
    "website": "",
    "cuisine": "",
    "hours": "",
    "lat": 32.6062049,
    "lon": -85.4813879,
    "full_address": "111 South College Street"
  },
  {
    "name": "Huff Smith Law",
    "category": "Lawyer",
    "address": "South College Street",
    "house_number": "369",
    "city": "Auburn",
    "state": "AL",
    "zip": "36830",
    "phone": "+1 334-329-5596",
    "website": "https://www.huffsmithlaw.com",
    "cuisine": "",
    "hours": "Mo-Fr 08:00-17:30; Sa,Su off",
    "lat": 32.5989327,
    "lon": -85.4814317,
    "full_address": "369 South College Street"
  },
  {
    "name": "McCollum and Wilson",
    "category": "Lawyer",
    "address": "East Glenn Avenue",
    "house_number": "363",
    "city": "Auburn",
    "state": "AL",
    "zip": "36830",
    "phone": "+1 334 821 7799",
    "website": "https://www.mcwlegal.com/",
    "cuisine": "",
    "hours": "",
    "lat": 32.6094279,
    "lon": -85.475564,
    "full_address": "363 East Glenn Avenue"
  },
  {
    "name": "Slocumb Law Firm",
    "category": "Lawyer",
    "address": "East Magnolia Avenue",
    "house_number": "145",
    "city": "Auburn",
    "state": "AL",
    "zip": "36830",
    "phone": "+1-334-741-4110",
    "website": "https://www.slocumblaw.com/alabama/auburn-al-lawyer",
    "cuisine": "",
    "hours": "",
    "lat": 32.6067364,
    "lon": -85.4804929,
    "full_address": "145 East Magnolia Avenue"
  },
  {
    "name": "The Bogdany Law Firm LLP",
    "category": "Lawyer",
    "address": "East Magnolia Avenue",
    "house_number": "165",
    "city": "Auburn",
    "state": "AL",
    "zip": "36830",
    "phone": "+1-334-539-8778",
    "website": "https://www.youralabamaattorneys.com/",
    "cuisine": "",
    "hours": "",
    "lat": 32.6067011,
    "lon": -85.4801879,
    "full_address": "165 East Magnolia Avenue"
  },
  {
    "name": "Auburn Public Library",
    "category": "Library",
    "address": "East Thach Avenue",
    "house_number": "749",
    "city": "Auburn",
    "state": "AL",
    "zip": "36830-5545",
    "phone": "+1 334-501-3190",
    "website": "",
    "cuisine": "",
    "hours": "",
    "lat": 32.6049401,
    "lon": -85.4655898,
    "full_address": "749 East Thach Avenue"
  },
  {
    "name": "Library of Architecture, Design, and Construction",
    "category": "Library",
    "address": "",
    "house_number": "",
    "city": "Auburn",
    "state": "AL",
    "zip": "",
    "phone": "",
    "website": "",
    "cuisine": "",
    "hours": "",
    "lat": 32.5992363,
    "lon": -85.4861779,
    "full_address": ""
  },
  {
    "name": "Ralph Brown Draughon Library and Mell Classroom Building",
    "category": "Library",
    "address": "Mell Street",
    "house_number": "231",
    "city": "Auburn",
    "state": "AL",
    "zip": "36849",
    "phone": "",
    "website": "https://www.lib.auburn.edu/",
    "cuisine": "",
    "hours": "",
    "lat": 32.6030194,
    "lon": -85.4828458,
    "full_address": "231 Mell Street"
  },
  {
    "name": "Book Deposit",
    "category": "Library Dropoff",
    "address": "",
    "house_number": "",
    "city": "Auburn",
    "state": "AL",
    "zip": "",
    "phone": "",
    "website": "",
    "cuisine": "",
    "hours": "",
    "lat": 32.6026429,
    "lon": -85.4831165,
    "full_address": ""
  },
  {
    "name": "ABC Store",
    "category": "Liquor Store",
    "address": "",
    "house_number": "",
    "city": "Auburn",
    "state": "AL",
    "zip": "",
    "phone": "",
    "website": "",
    "cuisine": "",
    "hours": "",
    "lat": 32.584273,
    "lon": -85.4879656,
    "full_address": ""
  },
  {
    "name": "Z&Z Tobacco & Spirits",
    "category": "Liquor Store",
    "address": "Opelika Road",
    "house_number": "203",
    "city": "Auburn",
    "state": "AL",
    "zip": "36830",
    "phone": "+1-334-209-0078",
    "website": "",
    "cuisine": "",
    "hours": "Mo-Th 10:00-22:00; Fr-Sa 10:00-23:00; Su 12:00-22:00",
    "lat": 32.6124748,
    "lon": -85.4794698,
    "full_address": "203 Opelika Road"
  },
  {
    "name": "Julie Collins Smith Museum of Fine Art",
    "category": "Museum",
    "address": "South College Street",
    "house_number": "901",
    "city": "Auburn",
    "state": "AL",
    "zip": "36849",
    "phone": "",
    "website": "",
    "cuisine": "",
    "hours": "",
    "lat": 32.5877518,
    "lon": -85.4837379,
    "full_address": "901 South College Street"
  },
  {
    "name": "Mountain High Outfitters",
    "category": "Outdoor",
    "address": "South College Street",
    "house_number": "339",
    "city": "Auburn",
    "state": "AL",
    "zip": "36830",
    "phone": "",
    "website": "",
    "cuisine": "",
    "hours": "",
    "lat": 32.5998073,
    "lon": -85.4815939,
    "full_address": "339 South College Street"
  },
  {
    "name": "Agricultural Heritage Park",
    "category": "Park",
    "address": "",
    "house_number": "",
    "city": "Auburn",
    "state": "AL",
    "zip": "",
    "phone": "",
    "website": "http://www.ag.auburn.edu/heritagepark/",
    "cuisine": "",
    "hours": "",
    "lat": 32.5948825,
    "lon": -85.4923579,
    "full_address": ""
  },
  {
    "name": "Auburn University Historic District",
    "category": "Park",
    "address": "",
    "house_number": "",
    "city": "Auburn",
    "state": "AL",
    "zip": "",
    "phone": "",
    "website": "",
    "cuisine": "",
    "hours": "",
    "lat": 32.6044569,
    "lon": -85.4838459,
    "full_address": ""
  },
  {
    "name": "Bowden Park",
    "category": "Park",
    "address": "",
    "house_number": "",
    "city": "Auburn",
    "state": "AL",
    "zip": "",
    "phone": "",
    "website": "",
    "cuisine": "",
    "hours": "",
    "lat": 32.5998125,
    "lon": -85.4662145,
    "full_address": ""
  },
  {
    "name": "Cater Lawn",
    "category": "Park",
    "address": "",
    "house_number": "",
    "city": "Auburn",
    "state": "AL",
    "zip": "",
    "phone": "",
    "website": "",
    "cuisine": "",
    "hours": "",
    "lat": 32.6037834,
    "lon": -85.4848394,
    "full_address": ""
  },
  {
    "name": "Davis Arboretum",
    "category": "Park",
    "address": "",
    "house_number": "",
    "city": "Auburn",
    "state": "AL",
    "zip": "",
    "phone": "",
    "website": "",
    "cuisine": "",
    "hours": "",
    "lat": 32.5946549,
    "lon": -85.4836255,
    "full_address": ""
  },
  {
    "name": "Felton Little Park",
    "category": "Park",
    "address": "",
    "house_number": "",
    "city": "Auburn",
    "state": "AL",
    "zip": "",
    "phone": "",
    "website": "",
    "cuisine": "",
    "hours": "",
    "lat": 32.610254,
    "lon": -85.4768191,
    "full_address": ""
  },
  {
    "name": "Garden of Memory",
    "category": "Park",
    "address": "",
    "house_number": "",
    "city": "Auburn",
    "state": "AL",
    "zip": "",
    "phone": "",
    "website": "",
    "cuisine": "",
    "hours": "",
    "lat": 32.5969495,
    "lon": -85.4843986,
    "full_address": ""
  },
  {
    "name": "Graham McTeer Park",
    "category": "Park",
    "address": "",
    "house_number": "",
    "city": "Auburn",
    "state": "AL",
    "zip": "",
    "phone": "",
    "website": "",
    "cuisine": "",
    "hours": "",
    "lat": 32.6028626,
    "lon": -85.4743346,
    "full_address": ""
  },
  {
    "name": "Kiwanis Fitness Trail",
    "category": "Park",
    "address": "",
    "house_number": "",
    "city": "Auburn",
    "state": "AL",
    "zip": "",
    "phone": "",
    "website": "",
    "cuisine": "",
    "hours": "",
    "lat": 32.5981001,
    "lon": -85.4747085,
    "full_address": ""
  },
  {
    "name": "Marger Piper Bailey Park",
    "category": "Park",
    "address": "Wrights Mill Road",
    "house_number": "910",
    "city": "Auburn",
    "state": "AL",
    "zip": "36830",
    "phone": "",
    "website": "",
    "cuisine": "",
    "hours": "",
    "lat": 32.5880665,
    "lon": -85.4719466,
    "full_address": "910 Wrights Mill Road"
  },
  {
    "name": "Martin Luther King Park",
    "category": "Park",
    "address": "",
    "house_number": "",
    "city": "Auburn",
    "state": "AL",
    "zip": "",
    "phone": "",
    "website": "",
    "cuisine": "",
    "hours": "",
    "lat": 32.6074786,
    "lon": -85.502511,
    "full_address": ""
  },
  {
    "name": "Moores Mill Park",
    "category": "Park",
    "address": "",
    "house_number": "",
    "city": "Auburn",
    "state": "AL",
    "zip": "",
    "phone": "",
    "website": "",
    "cuisine": "",
    "hours": "",
    "lat": 32.5884529,
    "lon": -85.4600386,
    "full_address": ""
  },
  {
    "name": "Old Main and Church Street Historic District",
    "category": "Park",
    "address": "",
    "house_number": "",
    "city": "Auburn",
    "state": "AL",
    "zip": "",
    "phone": "",
    "website": "",
    "cuisine": "",
    "hours": "",
    "lat": 32.6120787,
    "lon": -85.4818936,
    "full_address": ""
  },
  {
    "name": "RBD Library Park",
    "category": "Park",
    "address": "",
    "house_number": "",
    "city": "Auburn",
    "state": "AL",
    "zip": "",
    "phone": "",
    "website": "",
    "cuisine": "",
    "hours": "",
    "lat": 32.6021499,
    "lon": -85.4822244,
    "full_address": ""
  },
  {
    "name": "Ross Square",
    "category": "Park",
    "address": "",
    "house_number": "",
    "city": "Auburn",
    "state": "AL",
    "zip": "",
    "phone": "",
    "website": "",
    "cuisine": "",
    "hours": "",
    "lat": 32.6044291,
    "lon": -85.4838585,
    "full_address": ""
  },
  {
    "name": "Salmon Park",
    "category": "Park",
    "address": "",
    "house_number": "",
    "city": "Auburn",
    "state": "AL",
    "zip": "",
    "phone": "",
    "website": "",
    "cuisine": "",
    "hours": "",
    "lat": 32.5877199,
    "lon": -85.4778746,
    "full_address": ""
  },
  {
    "name": "Sam Harris Park",
    "category": "Park",
    "address": "",
    "house_number": "",
    "city": "Auburn",
    "state": "AL",
    "zip": "",
    "phone": "",
    "website": "",
    "cuisine": "",
    "hours": "",
    "lat": 32.6200692,
    "lon": -85.4998435,
    "full_address": ""
  },
  {
    "name": "Samford Avenue Tennis Center",
    "category": "Park",
    "address": "",
    "house_number": "",
    "city": "Auburn",
    "state": "AL",
    "zip": "",
    "phone": "",
    "website": "",
    "cuisine": "",
    "hours": "",
    "lat": 32.599482,
    "lon": -85.462847,
    "full_address": ""
  },
  {
    "name": "Samford Park",
    "category": "Park",
    "address": "",
    "house_number": "",
    "city": "Auburn",
    "state": "AL",
    "zip": "",
    "phone": "",
    "website": "",
    "cuisine": "",
    "hours": "",
    "lat": 32.60531,
    "lon": -85.4826126,
    "full_address": ""
  },
  {
    "name": "Samford Pool",
    "category": "Park",
    "address": "",
    "house_number": "",
    "city": "Auburn",
    "state": "AL",
    "zip": "",
    "phone": "",
    "website": "",
    "cuisine": "",
    "hours": "",
    "lat": 32.5973222,
    "lon": -85.4768676,
    "full_address": ""
  },
  {
    "name": "Student Center Greenspace",
    "category": "Park",
    "address": "",
    "house_number": "",
    "city": "Auburn",
    "state": "AL",
    "zip": "",
    "phone": "",
    "website": "",
    "cuisine": "",
    "hours": "",
    "lat": 32.6013005,
    "lon": -85.4874051,
    "full_address": ""
  },
  {
    "name": "Veteran's Memorial Park",
    "category": "Park",
    "address": "",
    "house_number": "",
    "city": "Auburn",
    "state": "AL",
    "zip": "",
    "phone": "",
    "website": "",
    "cuisine": "",
    "hours": "",
    "lat": 32.6092527,
    "lon": -85.4749384,
    "full_address": ""
  },
  {
    "name": "160 Ross Parking Deck",
    "category": "Parking",
    "address": "",
    "house_number": "",
    "city": "Auburn",
    "state": "AL",
    "zip": "",
    "phone": "",
    "website": "",
    "cuisine": "",
    "hours": "",
    "lat": 32.6080567,
    "lon": -85.4737135,
    "full_address": ""
  },
  {
    "name": "Auburn Municipal Parking",
    "category": "Parking",
    "address": "",
    "house_number": "",
    "city": "Auburn",
    "state": "AL",
    "zip": "",
    "phone": "",
    "website": "",
    "cuisine": "",
    "hours": "",
    "lat": 32.6073846,
    "lon": -85.4802839,
    "full_address": ""
  },
  {
    "name": "Auburn Municipal Parking Deck",
    "category": "Parking",
    "address": "",
    "house_number": "",
    "city": "Auburn",
    "state": "AL",
    "zip": "",
    "phone": "",
    "website": "",
    "cuisine": "",
    "hours": "PH,Mo-Su 12:00-12:00,12:00+",
    "lat": 32.6074255,
    "lon": -85.4806802,
    "full_address": ""
  },
  {
    "name": "Car Impound Lot",
    "category": "Parking",
    "address": "",
    "house_number": "",
    "city": "Auburn",
    "state": "AL",
    "zip": "",
    "phone": "",
    "website": "",
    "cuisine": "",
    "hours": "",
    "lat": 32.6022978,
    "lon": -85.4995125,
    "full_address": ""
  },
  {
    "name": "Comer Parking Lot",
    "category": "Parking",
    "address": "",
    "house_number": "",
    "city": "Auburn",
    "state": "AL",
    "zip": "",
    "phone": "",
    "website": "",
    "cuisine": "",
    "hours": "",
    "lat": 32.6009775,
    "lon": -85.4822062,
    "full_address": ""
  },
  {
    "name": "Green Hall Parking",
    "category": "Parking",
    "address": "",
    "house_number": "",
    "city": "Auburn",
    "state": "AL",
    "zip": "",
    "phone": "",
    "website": "",
    "cuisine": "",
    "hours": "",
    "lat": 32.5913393,
    "lon": -85.5100677,
    "full_address": ""
  },
  {
    "name": "Greene Hall",
    "category": "Parking",
    "address": "",
    "house_number": "",
    "city": "Auburn",
    "state": "AL",
    "zip": "",
    "phone": "",
    "website": "",
    "cuisine": "",
    "hours": "",
    "lat": 32.5902182,
    "lon": -85.5102876,
    "full_address": ""
  },
  {
    "name": "Library Parking Deck",
    "category": "Parking",
    "address": "",
    "house_number": "",
    "city": "Auburn",
    "state": "AL",
    "zip": "",
    "phone": "",
    "website": "",
    "cuisine": "",
    "hours": "",
    "lat": 32.6019325,
    "lon": -85.4829058,
    "full_address": ""
  },
  {
    "name": "Lower Parking Lot",
    "category": "Parking",
    "address": "",
    "house_number": "",
    "city": "Auburn",
    "state": "AL",
    "zip": "",
    "phone": "",
    "website": "",
    "cuisine": "",
    "hours": "",
    "lat": 32.5939725,
    "lon": -85.4983412,
    "full_address": ""
  },
  {
    "name": "North Park",
    "category": "Parking",
    "address": "",
    "house_number": "",
    "city": "Auburn",
    "state": "AL",
    "zip": "",
    "phone": "",
    "website": "",
    "cuisine": "",
    "hours": "",
    "lat": 32.607075,
    "lon": -85.4953089,
    "full_address": ""
  },
  {
    "name": "South College Street Parking Deck",
    "category": "Parking",
    "address": "",
    "house_number": "",
    "city": "Auburn",
    "state": "AL",
    "zip": "",
    "phone": "",
    "website": "",
    "cuisine": "",
    "hours": "",
    "lat": 32.6020473,
    "lon": -85.4812138,
    "full_address": ""
  },
  {
    "name": "South Donahue Parking Deck",
    "category": "Parking",
    "address": "",
    "house_number": "",
    "city": "Auburn",
    "state": "AL",
    "zip": "",
    "phone": "",
    "website": "",
    "cuisine": "",
    "hours": "",
    "lat": 32.5984453,
    "lon": -85.4913337,
    "full_address": ""
  },
  {
    "name": "South Quad Parking Deck",
    "category": "Parking",
    "address": "",
    "house_number": "",
    "city": "Auburn",
    "state": "AL",
    "zip": "",
    "phone": "",
    "website": "",
    "cuisine": "",
    "hours": "",
    "lat": 32.5941391,
    "lon": -85.4865774,
    "full_address": ""
  },
  {
    "name": "Stadium Parking Deck",
    "category": "Parking",
    "address": "Heisman Drive",
    "house_number": "425",
    "city": "Auburn",
    "state": "AL",
    "zip": "36849",
    "phone": "",
    "website": "",
    "cuisine": "",
    "hours": "",
    "lat": 32.6006286,
    "lon": -85.4886803,
    "full_address": "425 Heisman Drive"
  },
  {
    "name": "The Garden District Vistor Parking",
    "category": "Parking",
    "address": "",
    "house_number": "",
    "city": "Auburn",
    "state": "AL",
    "zip": "",
    "phone": "",
    "website": "",
    "cuisine": "",
    "hours": "",
    "lat": 32.5774328,
    "lon": -85.4886008,
    "full_address": ""
  },
  {
    "name": "Upper Parking Lot",
    "category": "Parking",
    "address": "",
    "house_number": "",
    "city": "Auburn",
    "state": "AL",
    "zip": "",
    "phone": "",
    "website": "",
    "cuisine": "",
    "hours": "",
    "lat": 32.5948296,
    "lon": -85.4985687,
    "full_address": ""
  },
  {
    "name": "Auburn University Student Pharmacy",
    "category": "Pharmacy",
    "address": "Lem Morrison Drive",
    "house_number": "400",
    "city": "Auburn",
    "state": "AL",
    "zip": "36849",
    "phone": "",
    "website": "",
    "cuisine": "",
    "hours": "",
    "lat": 32.5931452,
    "lon": -85.4883007,
    "full_address": "400 Lem Morrison Drive"
  },
  {
    "name": "CVS Pharmacy",
    "category": "Pharmacy",
    "address": "",
    "house_number": "",
    "city": "Auburn",
    "state": "AL",
    "zip": "",
    "phone": "",
    "website": "https://www.cvs.com/store-locator/auburn-al-pharmacies/770-east-glenn-avenue-auburn-al-36830/storeid=2402",
    "cuisine": "",
    "hours": "",
    "lat": 32.6083821,
    "lon": -85.465403,
    "full_address": ""
  },
  {
    "name": "The Drug Store",
    "category": "Pharmacy",
    "address": "North Dean Road",
    "house_number": "464",
    "city": "Auburn",
    "state": "AL",
    "zip": "36830",
    "phone": "",
    "website": "",
    "cuisine": "",
    "hours": "Mo-Fr 08:00-18:00",
    "lat": 32.6150253,
    "lon": -85.4639809,
    "full_address": "464 North Dean Road"
  },
  {
    "name": "Walgreens",
    "category": "Pharmacy",
    "address": "",
    "house_number": "",
    "city": "Auburn",
    "state": "AL",
    "zip": "",
    "phone": "",
    "website": "",
    "cuisine": "",
    "hours": "",
    "lat": 32.6095513,
    "lon": -85.4654541,
    "full_address": ""
  },
  {
    "name": "AT&T",
    "category": "Phone/Electronics",
    "address": "",
    "house_number": "",
    "city": "Auburn",
    "state": "AL",
    "zip": "",
    "phone": "",
    "website": "",
    "cuisine": "",
    "hours": "",
    "lat": 32.5831766,
    "lon": -85.4909999,
    "full_address": ""
  },
  {
    "name": "Verizon",
    "category": "Phone/Electronics",
    "address": "",
    "house_number": "",
    "city": "Auburn",
    "state": "AL",
    "zip": "",
    "phone": "",
    "website": "",
    "cuisine": "",
    "hours": "",
    "lat": 32.5791253,
    "lon": -85.4962275,
    "full_address": ""
  },
  {
    "name": "Football Practice Fields",
    "category": "Pitch",
    "address": "",
    "house_number": "",
    "city": "Auburn",
    "state": "AL",
    "zip": "",
    "phone": "",
    "website": "",
    "cuisine": "",
    "hours": "",
    "lat": 32.5982157,
    "lon": -85.4934645,
    "full_address": ""
  },
  {
    "name": "Frank Brown Rec Center Basketball Court",
    "category": "Pitch",
    "address": "",
    "house_number": "",
    "city": "Auburn",
    "state": "AL",
    "zip": "",
    "phone": "",
    "website": "",
    "cuisine": "",
    "hours": "",
    "lat": 32.6130135,
    "lon": -85.4785683,
    "full_address": ""
  },
  {
    "name": "Hitchcock Field",
    "category": "Pitch",
    "address": "",
    "house_number": "",
    "city": "Auburn",
    "state": "AL",
    "zip": "",
    "phone": "",
    "website": "",
    "cuisine": "",
    "hours": "",
    "lat": 32.5996626,
    "lon": -85.4895169,
    "full_address": ""
  },
  {
    "name": "Jane B. Moore Field",
    "category": "Pitch",
    "address": "",
    "house_number": "",
    "city": "Auburn",
    "state": "AL",
    "zip": "",
    "phone": "",
    "website": "",
    "cuisine": "",
    "hours": "",
    "lat": 32.5979963,
    "lon": -85.4970991,
    "full_address": ""
  },
  {
    "name": "Pat Dye Field",
    "category": "Pitch",
    "address": "",
    "house_number": "",
    "city": "Auburn",
    "state": "AL",
    "zip": "",
    "phone": "",
    "website": "",
    "cuisine": "",
    "hours": "",
    "lat": 32.6022316,
    "lon": -85.4891305,
    "full_address": ""
  },
  {
    "name": "Soccer Complex",
    "category": "Pitch",
    "address": "",
    "house_number": "",
    "city": "Auburn",
    "state": "AL",
    "zip": "",
    "phone": "",
    "website": "",
    "cuisine": "",
    "hours": "",
    "lat": 32.5964524,
    "lon": -85.4944049,
    "full_address": ""
  },
  {
    "name": "Public Safety and Security",
    "category": "Police",
    "address": "West Magnolia Avenue",
    "house_number": "543",
    "city": "Auburn",
    "state": "AL",
    "zip": "36849",
    "phone": "",
    "website": "",
    "cuisine": "",
    "hours": "",
    "lat": 32.6059515,
    "lon": -85.4923746,
    "full_address": "543 West Magnolia Avenue"
  },
  {
    "name": "United States Post Office",
    "category": "Post Office",
    "address": "Opelika Road",
    "house_number": "300",
    "city": "Auburn",
    "state": "AL",
    "zip": "36830",
    "phone": "+1-334-821-3754",
    "website": "",
    "cuisine": "",
    "hours": "Mo-Fr 08:30-17:00; Sa 09:00-13:00",
    "lat": 32.6119256,
    "lon": -85.4768565,
    "full_address": "300 Opelika Road"
  },
  {
    "name": "Auburn City Recycling Drop Off",
    "category": "Recycling",
    "address": "North Donahue Drive",
    "house_number": "365-A",
    "city": "Auburn",
    "state": "AL",
    "zip": "",
    "phone": "",
    "website": "https://www.auburnalabama.org/recycle",
    "cuisine": "",
    "hours": "",
    "lat": 32.6124678,
    "lon": -85.4911353,
    "full_address": "365-A North Donahue Drive"
  },
  {
    "name": "Goodwill Donation Center",
    "category": "Recycling",
    "address": "",
    "house_number": "",
    "city": "Auburn",
    "state": "AL",
    "zip": "",
    "phone": "",
    "website": "",
    "cuisine": "",
    "hours": "Mo-Sa 09:00-20:00; Su 10:00-18:00",
    "lat": 32.5757787,
    "lon": -85.4968758,
    "full_address": ""
  },
  {
    "name": "J&W Glass Co. LLC",
    "category": "Repair",
    "address": "North Gay Street",
    "house_number": "300",
    "city": "Auburn",
    "state": "AL",
    "zip": "36830",
    "phone": "+1-334-821-9004",
    "website": "",
    "cuisine": "",
    "hours": "Mo-Fr 08:00-16:30",
    "lat": 32.6104811,
    "lon": -85.4795415,
    "full_address": "300 North Gay Street"
  },
  {
    "name": "Acapulco's Mexican Grill",
    "category": "Restaurant",
    "address": "South College Street",
    "house_number": "1409",
    "city": "Auburn",
    "state": "AL",
    "zip": "36832",
    "phone": "+1-334-501-9197",
    "website": "https://www.orderacapulcosmex.com/",
    "cuisine": "mexican",
    "hours": "Su-Fr 11:00-22:00; Sa 11:00-23:00",
    "lat": 32.580376,
    "lon": -85.4949338,
    "full_address": "1409 South College Street"
  },
  {
    "name": "Amsterdam Cafe",
    "category": "Restaurant",
    "address": "",
    "house_number": "",
    "city": "Auburn",
    "state": "AL",
    "zip": "",
    "phone": "",
    "website": "",
    "cuisine": "",
    "hours": "",
    "lat": 32.5982217,
    "lon": -85.480157,
    "full_address": ""
  },
  {
    "name": "Arigato Sushi Boutique",
    "category": "Restaurant",
    "address": "North College Street",
    "house_number": "140",
    "city": "Auburn",
    "state": "AL",
    "zip": "36830",
    "phone": "",
    "website": "",
    "cuisine": "sushi",
    "hours": "",
    "lat": 32.6078048,
    "lon": -85.481517,
    "full_address": "140 North College Street"
  },
  {
    "name": "Big Blue Bagel",
    "category": "Restaurant",
    "address": "North College Street",
    "house_number": "120",
    "city": "Auburn",
    "state": "AL",
    "zip": "",
    "phone": "",
    "website": "",
    "cuisine": "",
    "hours": "",
    "lat": 32.6071332,
    "lon": -85.4815386,
    "full_address": "120 North College Street"
  },
  {
    "name": "Byron's Smokehouse",
    "category": "Restaurant",
    "address": "Opelika Road",
    "house_number": "436",
    "city": "Auburn",
    "state": "AL",
    "zip": "36830",
    "phone": "+1-334-887-9981",
    "website": "https://www.byronsmokehouse.com/",
    "cuisine": "barbecue",
    "hours": "",
    "lat": 32.6128365,
    "lon": -85.4738066,
    "full_address": "436 Opelika Road"
  },
  {
    "name": "Chappy's Deli",
    "category": "Restaurant",
    "address": "East Glenn Avenue",
    "house_number": "754",
    "city": "Auburn",
    "state": "AL",
    "zip": "36830",
    "phone": "+1-334-821-7220",
    "website": "https://www.chappysdeli.com/auburn-menu",
    "cuisine": "american;sandwich",
    "hours": "Mo-Fr 06:00-20:00; Sa 06:00-16:00",
    "lat": 32.6084068,
    "lon": -85.466236,
    "full_address": "754 East Glenn Avenue"
  },
  {
    "name": "Cheeburger Cheeburger",
    "category": "Restaurant",
    "address": "",
    "house_number": "",
    "city": "Auburn",
    "state": "AL",
    "zip": "",
    "phone": "",
    "website": "",
    "cuisine": "burger",
    "hours": "",
    "lat": 32.608192,
    "lon": -85.4815427,
    "full_address": ""
  },
  {
    "name": "Chimac",
    "category": "Restaurant",
    "address": "Opelika Road",
    "house_number": "203",
    "city": "Auburn",
    "state": "AL",
    "zip": "36830",
    "phone": "+1-334-209-0520",
    "website": "",
    "cuisine": "korean;wings",
    "hours": "Mo-We 11:00-14:30,16:30-22:00; Th-Fr 11:00-14:30,16:30-23:00",
    "lat": 32.6124742,
    "lon": -85.4793346,
    "full_address": "203 Opelika Road"
  },
  {
    "name": "East Sea Fishery",
    "category": "Restaurant",
    "address": "South College Street",
    "house_number": "1100",
    "city": "Auburn",
    "state": "AL",
    "zip": "36830",
    "phone": "+1-334-329-5500",
    "website": "",
    "cuisine": "seafood",
    "hours": "Mo-Fr 11:00-15:00,17:00-22:00; Sa 11:00-22:00",
    "lat": 32.5848856,
    "lon": -85.4897243,
    "full_address": "1100 South College Street"
  },
  {
    "name": "Eddie's Calzones",
    "category": "Restaurant",
    "address": "West Glenn Avenue",
    "house_number": "200",
    "city": "Auburn",
    "state": "AL",
    "zip": "36830",
    "phone": "+1-334-329-5111",
    "website": "",
    "cuisine": "",
    "hours": "Su-Sa 11:00-04:00",
    "lat": 32.6092175,
    "lon": -85.482954,
    "full_address": "200 West Glenn Avenue"
  },
  {
    "name": "Esposito's Italian Bistro",
    "category": "Restaurant",
    "address": "North College Street",
    "house_number": "154",
    "city": "Auburn",
    "state": "AL",
    "zip": "36830",
    "phone": "",
    "website": "",
    "cuisine": "italian",
    "hours": "",
    "lat": 32.6079434,
    "lon": -85.4815175,
    "full_address": "154 North College Street"
  },
  {
    "name": "Fratelli's Ristorante Italiano",
    "category": "Restaurant",
    "address": "",
    "house_number": "",
    "city": "Auburn",
    "state": "AL",
    "zip": "",
    "phone": "",
    "website": "",
    "cuisine": "italian",
    "hours": "",
    "lat": 32.5799013,
    "lon": -85.4954032,
    "full_address": ""
  },
  {
    "name": "Fuji Sushi Bar",
    "category": "Restaurant",
    "address": "",
    "house_number": "",
    "city": "Auburn",
    "state": "AL",
    "zip": "",
    "phone": "",
    "website": "",
    "cuisine": "sushi",
    "hours": "",
    "lat": 32.5793622,
    "lon": -85.4958957,
    "full_address": ""
  },
  {
    "name": "Game Time Sports Bar & Grill",
    "category": "Restaurant",
    "address": "Opelika Road",
    "house_number": "675",
    "city": "Auburn",
    "state": "AL",
    "zip": "36830",
    "phone": "",
    "website": "",
    "cuisine": "",
    "hours": "",
    "lat": 32.616157,
    "lon": -85.4665975,
    "full_address": "675 Opelika Road"
  },
  {
    "name": "Halftime Sports Bar & Grill",
    "category": "Restaurant",
    "address": "North College Street",
    "house_number": "156",
    "city": "Auburn",
    "state": "AL",
    "zip": "36830",
    "phone": "+1-334-209-1444",
    "website": "https://www.halftimeauburn.com/",
    "cuisine": "bar_and_grill",
    "hours": "",
    "lat": 32.6080771,
    "lon": -85.4815122,
    "full_address": "156 North College Street"
  },
  {
    "name": "Hamilton's on Magnolia",
    "category": "Restaurant",
    "address": "East Magnolia Avenue",
    "house_number": "174",
    "city": "Auburn",
    "state": "AL",
    "zip": "36830",
    "phone": "",
    "website": "",
    "cuisine": "",
    "hours": "",
    "lat": 32.6063791,
    "lon": -85.4800379,
    "full_address": "174 East Magnolia Avenue"
  },
  {
    "name": "India Palace",
    "category": "Restaurant",
    "address": "South College Street",
    "house_number": "1100",
    "city": "Auburn",
    "state": "AL",
    "zip": "36830",
    "phone": "+1-334-209-0064",
    "website": "https://www.indiapalaceaub.com/",
    "cuisine": "indian",
    "hours": "Tu-Su 11:00-14:30,17:00-21:30",
    "lat": 32.5850053,
    "lon": -85.4907243,
    "full_address": "1100 South College Street"
  },
  {
    "name": "Island Wing Company",
    "category": "Restaurant",
    "address": "West Glenn Avenue",
    "house_number": "200",
    "city": "Auburn",
    "state": "AL",
    "zip": "36830",
    "phone": "+1-334-501-9555",
    "website": "",
    "cuisine": "chicken",
    "hours": "Su-Th 11:00-22:00, Fr-Sa 11:00-23:00",
    "lat": 32.6092123,
    "lon": -85.4831418,
    "full_address": "200 West Glenn Avenue"
  },
  {
    "name": "La Plaza",
    "category": "Restaurant",
    "address": "",
    "house_number": "",
    "city": "Auburn",
    "state": "AL",
    "zip": "",
    "phone": "",
    "website": "",
    "cuisine": "mexican",
    "hours": "Mo-Sa 09:30-21:00; Su 09:30-20:00",
    "lat": 32.5758242,
    "lon": -85.4968522,
    "full_address": ""
  },
  {
    "name": "Little Italy",
    "category": "Restaurant",
    "address": "",
    "house_number": "",
    "city": "Auburn",
    "state": "AL",
    "zip": "",
    "phone": "",
    "website": "",
    "cuisine": "pizza",
    "hours": "",
    "lat": 32.6068275,
    "lon": -85.4809336,
    "full_address": ""
  },
  {
    "name": "Live Oaks",
    "category": "Restaurant",
    "address": "North College Street",
    "house_number": "201",
    "city": "Auburn",
    "state": "AL",
    "zip": "36830",
    "phone": "",
    "website": "",
    "cuisine": "",
    "hours": "",
    "lat": 32.6092278,
    "lon": -85.4821536,
    "full_address": "201 North College Street"
  },
  {
    "name": "Maddio's Pizza",
    "category": "Restaurant",
    "address": "",
    "house_number": "",
    "city": "Auburn",
    "state": "AL",
    "zip": "",
    "phone": "",
    "website": "",
    "cuisine": "",
    "hours": "",
    "lat": 32.5999401,
    "lon": -85.4811921,
    "full_address": ""
  },
  {
    "name": "Mellow Mushroom",
    "category": "Restaurant",
    "address": "",
    "house_number": "",
    "city": "Auburn",
    "state": "AL",
    "zip": "",
    "phone": "",
    "website": "",
    "cuisine": "pizza",
    "hours": "",
    "lat": 32.6073586,
    "lon": -85.4815314,
    "full_address": ""
  },
  {
    "name": "Moe's Original Barbecue",
    "category": "Restaurant",
    "address": "",
    "house_number": "",
    "city": "Auburn",
    "state": "AL",
    "zip": "",
    "phone": "",
    "website": "",
    "cuisine": "",
    "hours": "",
    "lat": 32.6067779,
    "lon": -85.4810779,
    "full_address": ""
  },
  {
    "name": "Moe's Southwestern Grill",
    "category": "Restaurant",
    "address": "West Magnolia Avenue",
    "house_number": "114",
    "city": "Auburn",
    "state": "AL",
    "zip": "36830",
    "phone": "",
    "website": "",
    "cuisine": "southwestern",
    "hours": "",
    "lat": 32.6067939,
    "lon": -85.482494,
    "full_address": "114 West Magnolia Avenue"
  },
  {
    "name": "Momma Goldberg's Deli",
    "category": "Restaurant",
    "address": "",
    "house_number": "",
    "city": "Auburn",
    "state": "AL",
    "zip": "",
    "phone": "",
    "website": "",
    "cuisine": "",
    "hours": "",
    "lat": 32.6067202,
    "lon": -85.4906376,
    "full_address": ""
  },
  {
    "name": "Mylks Cookies",
    "category": "Restaurant",
    "address": "",
    "house_number": "",
    "city": "Auburn",
    "state": "AL",
    "zip": "",
    "phone": "",
    "website": "",
    "cuisine": "",
    "hours": "",
    "lat": 32.6067563,
    "lon": -85.4841114,
    "full_address": ""
  },
  {
    "name": "Naruto Korean Restaurant",
    "category": "Restaurant",
    "address": "South College Street",
    "house_number": "1445",
    "city": "Auburn",
    "state": "AL",
    "zip": "36832",
    "phone": "",
    "website": "",
    "cuisine": "asian",
    "hours": "",
    "lat": 32.5799702,
    "lon": -85.4953673,
    "full_address": "1445 South College Street"
  },
  {
    "name": "Newk's Eatery",
    "category": "Restaurant",
    "address": "South Gay Street",
    "house_number": "340",
    "city": "Auburn",
    "state": "AL",
    "zip": "36830",
    "phone": "",
    "website": "",
    "cuisine": "",
    "hours": "",
    "lat": 32.6002737,
    "lon": -85.4803549,
    "full_address": "340 South Gay Street"
  },
  {
    "name": "Panda",
    "category": "Restaurant",
    "address": "",
    "house_number": "",
    "city": "Auburn",
    "state": "AL",
    "zip": "",
    "phone": "",
    "website": "",
    "cuisine": "chinese",
    "hours": "Mo,We-Th,Su 11:00-22:00; Fr-Sa 11:00-23:00",
    "lat": 32.5760601,
    "lon": -85.4967596,
    "full_address": ""
  },
  {
    "name": "Rock N Roll Sushi",
    "category": "Restaurant",
    "address": "West Glenn Avenue",
    "house_number": "200",
    "city": "Auburn",
    "state": "AL",
    "zip": "36830",
    "phone": "+1-334-209-6253",
    "website": "https://rnrsushi.com/",
    "cuisine": "sushi",
    "hours": "Su-Th 11:00-21:00, Fr-Sa 11:00-22:00",
    "lat": 32.6092199,
    "lon": -85.4828147,
    "full_address": "200 West Glenn Avenue"
  },
  {
    "name": "Salsarita's",
    "category": "Restaurant",
    "address": "South College Street",
    "house_number": "1111",
    "city": "Auburn",
    "state": "AL",
    "zip": "36832",
    "phone": "",
    "website": "",
    "cuisine": "mexican",
    "hours": "",
    "lat": 32.583561,
    "lon": -85.4902775,
    "full_address": "1111 South College Street"
  },
  {
    "name": "Seoul BBQ",
    "category": "Restaurant",
    "address": "",
    "house_number": "",
    "city": "Auburn",
    "state": "AL",
    "zip": "",
    "phone": "",
    "website": "",
    "cuisine": "korean",
    "hours": "",
    "lat": 32.6057902,
    "lon": -85.4815337,
    "full_address": ""
  },
  {
    "name": "Shrimp Basket",
    "category": "Restaurant",
    "address": "",
    "house_number": "",
    "city": "Auburn",
    "state": "AL",
    "zip": "",
    "phone": "",
    "website": "",
    "cuisine": "",
    "hours": "",
    "lat": 32.575563,
    "lon": -85.4981067,
    "full_address": ""
  },
  {
    "name": "Sushi Hero",
    "category": "Restaurant",
    "address": "South College Street",
    "house_number": "1642",
    "city": "Auburn",
    "state": "AL",
    "zip": "36832",
    "phone": "",
    "website": "",
    "cuisine": "sushi",
    "hours": "Su-Th 11:00-21:00; Fr,Sa 11:00-22:00",
    "lat": 32.5762558,
    "lon": -85.4988731,
    "full_address": "1642 South College Street"
  },
  {
    "name": "Tacorita",
    "category": "Restaurant",
    "address": "North College Street",
    "house_number": "138",
    "city": "Auburn",
    "state": "AL",
    "zip": "36830",
    "phone": "",
    "website": "",
    "cuisine": "mexican",
    "hours": "",
    "lat": 32.607595,
    "lon": -85.4815301,
    "full_address": "138 North College Street"
  },
  {
    "name": "Tenda Chick",
    "category": "Restaurant",
    "address": "",
    "house_number": "",
    "city": "Auburn",
    "state": "AL",
    "zip": "",
    "phone": "",
    "website": "",
    "cuisine": "chicken",
    "hours": "",
    "lat": 32.6099656,
    "lon": -85.4644071,
    "full_address": ""
  },
  {
    "name": "The Depot",
    "category": "Restaurant",
    "address": "Mitcham Avenue",
    "house_number": "124",
    "city": "Auburn",
    "state": "AL",
    "zip": "",
    "phone": "",
    "website": "https://www.allaboardauburn.com/",
    "cuisine": "seafood",
    "hours": "",
    "lat": 32.6102001,
    "lon": -85.4807656,
    "full_address": "124 Mitcham Avenue"
  },
  {
    "name": "The Hound",
    "category": "Restaurant",
    "address": "Tichenor Avenue",
    "house_number": "124",
    "city": "Auburn",
    "state": "AL",
    "zip": "36830",
    "phone": "",
    "website": "",
    "cuisine": "american",
    "hours": "",
    "lat": 32.6078837,
    "lon": -85.480969,
    "full_address": "124 Tichenor Avenue"
  },
  {
    "name": "The Pita Pit",
    "category": "Restaurant",
    "address": "",
    "house_number": "",
    "city": "Auburn",
    "state": "AL",
    "zip": "",
    "phone": "",
    "website": "",
    "cuisine": "sandwich",
    "hours": "",
    "lat": 32.6080687,
    "lon": -85.4819066,
    "full_address": ""
  },
  {
    "name": "Tropical Smoothie",
    "category": "Restaurant",
    "address": "",
    "house_number": "",
    "city": "Auburn",
    "state": "AL",
    "zip": "",
    "phone": "",
    "website": "",
    "cuisine": "",
    "hours": "",
    "lat": 32.6092057,
    "lon": -85.4833438,
    "full_address": ""
  },
  {
    "name": "Uncle Charley's",
    "category": "Restaurant",
    "address": "Opelika Road",
    "house_number": "403",
    "city": "Auburn",
    "state": "AL",
    "zip": "36830",
    "phone": "",
    "website": "",
    "cuisine": "",
    "hours": "",
    "lat": 32.6133967,
    "lon": -85.4756448,
    "full_address": "403 Opelika Road"
  },
  {
    "name": "Vacant Building",
    "category": "Restaurant",
    "address": "North College Street",
    "house_number": "307",
    "city": "Auburn",
    "state": "AL",
    "zip": "36830",
    "phone": "",
    "website": "",
    "cuisine": "",
    "hours": "",
    "lat": 32.6102101,
    "lon": -85.4822391,
    "full_address": "307 North College Street"
  },
  {
    "name": "Village Wok",
    "category": "Restaurant",
    "address": "South College Street",
    "house_number": "100",
    "city": "Auburn",
    "state": "AL",
    "zip": "36830",
    "phone": "+1-334-501-2996",
    "website": "https://villagewokal.com/",
    "cuisine": "chinese",
    "hours": "Su 11:00-21:15; Mo-Fr 10:30-21:15",
    "lat": 32.5850103,
    "lon": -85.4904289,
    "full_address": "100 South College Street"
  },
  {
    "name": "Waffle House",
    "category": "Restaurant",
    "address": "",
    "house_number": "",
    "city": "Auburn",
    "state": "AL",
    "zip": "",
    "phone": "+1 334-826-0987",
    "website": "https://locations.wafflehouse.com/auburn-al-1882/",
    "cuisine": "american",
    "hours": "24/7",
    "lat": 32.6092897,
    "lon": -85.4826547,
    "full_address": ""
  },
  {
    "name": "Yum Yums Food Specialty Shoppe",
    "category": "Restaurant",
    "address": "",
    "house_number": "",
    "city": "Auburn",
    "state": "AL",
    "zip": "",
    "phone": "",
    "website": "",
    "cuisine": "",
    "hours": "",
    "lat": 32.6146836,
    "lon": -85.4699812,
    "full_address": ""
  },
  {
    "name": "Zo's Kitchen",
    "category": "Restaurant",
    "address": "West Magnolia Avenue",
    "house_number": "234",
    "city": "Auburn",
    "state": "AL",
    "zip": "36830",
    "phone": "",
    "website": "",
    "cuisine": "mediterranean",
    "hours": "Mo-Su 11:00-21:30; PH unknown",
    "lat": 32.6067582,
    "lon": -85.4844033,
    "full_address": "234 West Magnolia Avenue"
  },
  {
    "name": "Auburn City Schools Board of Education",
    "category": "School",
    "address": "East Samford Avenue",
    "house_number": "855",
    "city": "Auburn",
    "state": "AL",
    "zip": "",
    "phone": "",
    "website": "",
    "cuisine": "",
    "hours": "",
    "lat": 32.5991661,
    "lon": -85.4641194,
    "full_address": "855 East Samford Avenue"
  },
  {
    "name": "Auburn Early Education Center",
    "category": "School",
    "address": "",
    "house_number": "",
    "city": "Auburn",
    "state": "AL",
    "zip": "",
    "phone": "",
    "website": "",
    "cuisine": "",
    "hours": "",
    "lat": 32.5857119,
    "lon": -85.4696136,
    "full_address": ""
  },
  {
    "name": "Auburn Junior High School",
    "category": "School",
    "address": "South Dean Road",
    "house_number": "405",
    "city": "Auburn",
    "state": "AL",
    "zip": "36830",
    "phone": "+1 334-887-4970",
    "website": "https://www.auburnschools.org/ajhs",
    "cuisine": "",
    "hours": "",
    "lat": 32.5966826,
    "lon": -85.4624256,
    "full_address": "405 South Dean Road"
  },
  {
    "name": "Auburn University College of Veterinary Medicine",
    "category": "School",
    "address": "",
    "house_number": "",
    "city": "Auburn",
    "state": "AL",
    "zip": "",
    "phone": "",
    "website": "",
    "cuisine": "",
    "hours": "",
    "lat": 32.589787,
    "lon": -85.511392,
    "full_address": ""
  },
  {
    "name": "Cary Woods Elementary School",
    "category": "School",
    "address": "",
    "house_number": "",
    "city": "Auburn",
    "state": "AL",
    "zip": "",
    "phone": "",
    "website": "",
    "cuisine": "",
    "hours": "",
    "lat": 32.6215204,
    "lon": -85.4852213,
    "full_address": ""
  },
  {
    "name": "Dean Road Elementary School",
    "category": "School",
    "address": "",
    "house_number": "",
    "city": "Auburn",
    "state": "AL",
    "zip": "",
    "phone": "",
    "website": "",
    "cuisine": "",
    "hours": "",
    "lat": 32.6008746,
    "lon": -85.4637823,
    "full_address": ""
  },
  {
    "name": "Drake Middle School",
    "category": "School",
    "address": "",
    "house_number": "",
    "city": "Auburn",
    "state": "AL",
    "zip": "",
    "phone": "",
    "website": "",
    "cuisine": "",
    "hours": "",
    "lat": 32.6179368,
    "lon": -85.4931418,
    "full_address": ""
  },
  {
    "name": "East Samford School",
    "category": "School",
    "address": "East Samford Avenue",
    "house_number": "332",
    "city": "Auburn",
    "state": "AL",
    "zip": "36830",
    "phone": "+1 334 887 1960",
    "website": "https://www.auburnschools.org/ess",
    "cuisine": "",
    "hours": "",
    "lat": 32.5972026,
    "lon": -85.4762899,
    "full_address": "332 East Samford Avenue"
  },
  {
    "name": "Richland Elementary School",
    "category": "School",
    "address": "",
    "house_number": "",
    "city": "Auburn",
    "state": "AL",
    "zip": "",
    "phone": "",
    "website": "",
    "cuisine": "",
    "hours": "",
    "lat": 32.6192188,
    "lon": -85.5129291,
    "full_address": ""
  },
  {
    "name": "Wrights Mill Road Elementary School",
    "category": "School",
    "address": "",
    "house_number": "",
    "city": "Auburn",
    "state": "AL",
    "zip": "",
    "phone": "",
    "website": "",
    "cuisine": "",
    "hours": "",
    "lat": 32.5898345,
    "lon": -85.471886,
    "full_address": ""
  },
  {
    "name": "Campus Food Pantry",
    "category": "Social Facility",
    "address": "",
    "house_number": "",
    "city": "Auburn",
    "state": "AL",
    "zip": "",
    "phone": "",
    "website": "",
    "cuisine": "",
    "hours": "",
    "lat": 32.6013618,
    "lon": -85.4854693,
    "full_address": ""
  },
  {
    "name": "Indoor Practice Facility",
    "category": "Sports Centre",
    "address": "",
    "house_number": "",
    "city": "Auburn",
    "state": "AL",
    "zip": "",
    "phone": "",
    "website": "",
    "cuisine": "",
    "hours": "",
    "lat": 32.5978106,
    "lon": -85.4932853,
    "full_address": ""
  },
  {
    "name": "Student Activities Center",
    "category": "Sports Centre",
    "address": "Heisman Drive",
    "house_number": "671",
    "city": "Auburn",
    "state": "AL",
    "zip": "36849",
    "phone": "",
    "website": "",
    "cuisine": "",
    "hours": "",
    "lat": 32.6002296,
    "lon": -85.4942003,
    "full_address": "671 Heisman Drive"
  },
  {
    "name": "Auburn Arena",
    "category": "Stadium",
    "address": "Beard-Eaves Court",
    "house_number": "250",
    "city": "Auburn",
    "state": "AL",
    "zip": "36849",
    "phone": "",
    "website": "",
    "cuisine": "",
    "hours": "",
    "lat": 32.6026099,
    "lon": -85.4925155,
    "full_address": "250 Beard-Eaves Court"
  },
  {
    "name": "BeardEavesMemorial Coliseum",
    "category": "Stadium",
    "address": "Biggio Drive",
    "house_number": "650",
    "city": "Auburn",
    "state": "AL",
    "zip": "36849",
    "phone": "",
    "website": "",
    "cuisine": "",
    "hours": "",
    "lat": 32.600121,
    "lon": -85.4923285,
    "full_address": "650 Biggio Drive"
  },
  {
    "name": "Jordan-Hare Stadium",
    "category": "Stadium",
    "address": "South Donahue Drive",
    "house_number": "251",
    "city": "Auburn",
    "state": "AL",
    "zip": "36849",
    "phone": "",
    "website": "",
    "cuisine": "",
    "hours": "",
    "lat": 32.6021754,
    "lon": -85.489122,
    "full_address": "251 South Donahue Drive"
  },
  {
    "name": "Plainsman Park",
    "category": "Stadium",
    "address": "",
    "house_number": "",
    "city": "Auburn",
    "state": "AL",
    "zip": "",
    "phone": "",
    "website": "",
    "cuisine": "",
    "hours": "",
    "lat": 32.5998203,
    "lon": -85.4896857,
    "full_address": ""
  },
  {
    "name": "Stor-Eagle Storage",
    "category": "Storage",
    "address": "North Gay Street",
    "house_number": "312",
    "city": "Auburn",
    "state": "AL",
    "zip": "36830",
    "phone": "+1-334-521-6288",
    "website": "",
    "cuisine": "",
    "hours": "Mo-Fr 09:30-18:00; Sa 08:30-17:00",
    "lat": 32.6107245,
    "lon": -85.4795121,
    "full_address": "312 North Gay Street"
  },
  {
    "name": "Sun Self Storage",
    "category": "Storage",
    "address": "",
    "house_number": "",
    "city": "Auburn",
    "state": "AL",
    "zip": "",
    "phone": "",
    "website": "",
    "cuisine": "",
    "hours": "",
    "lat": 32.615598,
    "lon": -85.4695241,
    "full_address": ""
  },
  {
    "name": "Outdoor Training Pool",
    "category": "Swimming Pool",
    "address": "",
    "house_number": "",
    "city": "Auburn",
    "state": "AL",
    "zip": "",
    "phone": "",
    "website": "",
    "cuisine": "",
    "hours": "",
    "lat": 32.601407,
    "lon": -85.493914,
    "full_address": ""
  },
  {
    "name": "Spinks & Son Tailoring Shop",
    "category": "Tailor",
    "address": "",
    "house_number": "",
    "city": "Auburn",
    "state": "AL",
    "zip": "",
    "phone": "",
    "website": "",
    "cuisine": "",
    "hours": "",
    "lat": 32.6104951,
    "lon": -85.4750875,
    "full_address": ""
  },
  {
    "name": "Graves Amphitheater",
    "category": "Theatre",
    "address": "",
    "house_number": "",
    "city": "Auburn",
    "state": "AL",
    "zip": "",
    "phone": "",
    "website": "",
    "cuisine": "",
    "hours": "",
    "lat": 32.5992961,
    "lon": -85.4870312,
    "full_address": ""
  },
  {
    "name": "Telfair Peet Theatre",
    "category": "Theatre",
    "address": "West Samford Avenue",
    "house_number": "350",
    "city": "Auburn",
    "state": "AL",
    "zip": "36849",
    "phone": "",
    "website": "",
    "cuisine": "",
    "hours": "",
    "lat": 32.5984185,
    "lon": -85.4869672,
    "full_address": "350 West Samford Avenue"
  },
  {
    "name": "Da Gallery",
    "category": "Tobacco/Vape",
    "address": "South College Street",
    "house_number": "1409",
    "city": "Auburn",
    "state": "AL",
    "zip": "36832",
    "phone": "",
    "website": "",
    "cuisine": "",
    "hours": "",
    "lat": 32.5805375,
    "lon": -85.4947557,
    "full_address": "1409 South College Street"
  },
  {
    "name": "City Hall",
    "category": "Townhall",
    "address": "",
    "house_number": "",
    "city": "Auburn",
    "state": "AL",
    "zip": "",
    "phone": "",
    "website": "",
    "cuisine": "",
    "hours": "",
    "lat": 32.6080166,
    "lon": -85.4802899,
    "full_address": ""
  },
  {
    "name": "Auburn Tire Service",
    "category": "Tyres",
    "address": "Opelika Road",
    "house_number": "459",
    "city": "Auburn",
    "state": "AL",
    "zip": "36830",
    "phone": "+1-334-887-8558",
    "website": "",
    "cuisine": "",
    "hours": "Mo-Fr 08:00-17:00",
    "lat": 32.6136122,
    "lon": -85.4730548,
    "full_address": "459 Opelika Road"
  },
  {
    "name": "Auburn University Raptor Center",
    "category": "University",
    "address": "Pratt-Carden Dr.",
    "house_number": "1350",
    "city": "Auburn",
    "state": "AL",
    "zip": "36849",
    "phone": "",
    "website": "https://www.vetmed.auburn.edu/raptor/",
    "cuisine": "",
    "hours": "",
    "lat": 32.5984942,
    "lon": -85.5082258,
    "full_address": "1350 Pratt-Carden Dr."
  },
  {
    "name": "Ludwig von Mises Institute",
    "category": "University",
    "address": "",
    "house_number": "",
    "city": "Auburn",
    "state": "AL",
    "zip": "",
    "phone": "",
    "website": "",
    "cuisine": "",
    "hours": "",
    "lat": 32.6067157,
    "lon": -85.4910049,
    "full_address": ""
  },
  {
    "name": "Dollar General",
    "category": "Variety Store",
    "address": "",
    "house_number": "",
    "city": "Auburn",
    "state": "AL",
    "zip": "",
    "phone": "",
    "website": "https://www.dollargeneral.com/store-directory/al/auburn/8665",
    "cuisine": "",
    "hours": "",
    "lat": 32.5793402,
    "lon": -85.4887644,
    "full_address": ""
  },
  {
    "name": "Family Dollar",
    "category": "Variety Store",
    "address": "",
    "house_number": "",
    "city": "Auburn",
    "state": "AL",
    "zip": "",
    "phone": "",
    "website": "",
    "cuisine": "",
    "hours": "",
    "lat": 32.6104727,
    "lon": -85.4897195,
    "full_address": ""
  },
  {
    "name": "Auburn University Veterinary Clinic",
    "category": "Veterinary",
    "address": "Wire Road",
    "house_number": "1180",
    "city": "Auburn",
    "state": "AL",
    "zip": "36849",
    "phone": "",
    "website": "",
    "cuisine": "",
    "hours": "",
    "lat": 32.5900685,
    "lon": -85.5109055,
    "full_address": "1180 Wire Road"
  },
  {
    "name": "John Thomas Vaughan Large Animal Teaching Hospital",
    "category": "Veterinary",
    "address": "Wire Road",
    "house_number": "1500",
    "city": "Auburn",
    "state": "AL",
    "zip": "36849",
    "phone": "",
    "website": "",
    "cuisine": "",
    "hours": "",
    "lat": 32.5885018,
    "lon": -85.5130153,
    "full_address": "1500 Wire Road"
  },
  {
    "name": "North Gay Veterinary Clinic",
    "category": "Veterinary",
    "address": "North Gay Street",
    "house_number": "438",
    "city": "Auburn",
    "state": "AL",
    "zip": "",
    "phone": "",
    "website": "",
    "cuisine": "",
    "hours": "",
    "lat": 32.6134616,
    "lon": -85.4796045,
    "full_address": "438 North Gay Street"
  },
  {
    "name": "Wilford and Kate Bailey Small Animal Teaching Hospital",
    "category": "Veterinary",
    "address": "Wire Road",
    "house_number": "1220",
    "city": "Auburn",
    "state": "AL",
    "zip": "36849",
    "phone": "",
    "website": "",
    "cuisine": "",
    "hours": "",
    "lat": 32.5895181,
    "lon": -85.5116507,
    "full_address": "1220 Wire Road"
  },
  {
    "name": "Creekside of Auburn Sales Office",
    "category": "Yes",
    "address": "Dekalb Street",
    "house_number": "650",
    "city": "Auburn",
    "state": "AL",
    "zip": "36830",
    "phone": "+1-334-321-2356",
    "website": "",
    "cuisine": "",
    "hours": "Mo-Fr 09:00-18:00, Sa 10:00-16:00, Su 13:00-16:00",
    "lat": 32.6180124,
    "lon": -85.4684913,
    "full_address": "650 Dekalb Street"
  }
]